{
"city":{"name": "Palmeiras do Tocantins", "state":"TO", "location":{"lat": -6.616584, "lng": -47.546429}},
"city":{"name": "Barro Preto", "state":"BA", "location":{"lat": -14.794773, "lng": -39.476029}},
"city":{"name": "Fernando de Noronha", "state":"PE", "location":{"lat": -3.839601, "lng": -32.410733}},
"city":{"name": "Campo de Santana", "state":"PB", "location":{"lat": -6.487585, "lng": -35.636707}},
"city":{"name": "Pracuúba", "state":"AP", "location":{"lat": 1.745427, "lng": -50.789248}},
"city":{"name": "Amapá", "state":"AP", "location":{"lat": 2.052669, "lng": -50.795653}},
"city":{"name": "Bujari", "state":"AC", "location":{"lat": -9.815277, "lng": -67.955029}},
"city":{"name": "Plácido de Castro", "state":"AC", "location":{"lat": -10.280640, "lng": -67.137133}},
"city":{"name": "Tarauacá", "state":"AC", "location":{"lat": -8.156975, "lng": -70.772154}},
"city":{"name": "Feijó", "state":"AC", "location":{"lat": -8.170536, "lng": -70.350973}},
"city":{"name": "Caracaraí", "state":"RR", "location":{"lat": 1.827659, "lng": -61.130378}},
"city":{"name": "Iracema", "state":"RR", "location":{"lat": 2.183046, "lng": -61.041546}},
"city":{"name": "Mucajaí", "state":"RR", "location":{"lat": 2.439982, "lng": -60.909619}},
"city":{"name": "Alto Alegre", "state":"RR", "location":{"lat": 2.988580, "lng": -61.307167}},
"city":{"name": "Amajari", "state":"RR", "location":{"lat": 3.645714, "lng": -61.369245}},
"city":{"name": "Rorainópolis", "state":"RR", "location":{"lat": 0.939956, "lng": -60.438923}},
"city":{"name": "São Luiz", "state":"RR", "location":{"lat": 1.010193, "lng": -60.041894}},
"city":{"name": "São João da Baliza", "state":"RR", "location":{"lat": 0.951659, "lng": -59.913293}},
"city":{"name": "Caroebe", "state":"RR", "location":{"lat": 0.884203, "lng": -59.695886}},
"city":{"name": "Cantá", "state":"RR", "location":{"lat": 2.609940, "lng": -60.605827}},
"city":{"name": "Bonfim", "state":"RR", "location":{"lat": 3.361614, "lng": -59.833300}},
"city":{"name": "Normandia", "state":"RR", "location":{"lat": 3.885305, "lng": -59.620402}},
"city":{"name": "Pacaraima", "state":"RR", "location":{"lat": 4.479895, "lng": -61.147695}},
"city":{"name": "Uiramutã", "state":"RR", "location":{"lat": 4.603144, "lng": -60.181464}},
"city":{"name": "Pedra Branca do Amapari", "state":"AP", "location":{"lat": 0.777424, "lng": -51.950306}},
"city":{"name": "Serra do Navio", "state":"AP", "location":{"lat": 0.901357, "lng": -52.003636}},
"city":{"name": "Porto Grande", "state":"AP", "location":{"lat": 0.712430, "lng": -51.415499}},
"city":{"name": "Ferreira Gomes", "state":"AP", "location":{"lat": 0.857256, "lng": -51.179523}},
"city":{"name": "Itaubal", "state":"AP", "location":{"lat": 0.596137, "lng": -50.670828}},
"city":{"name": "Cutias", "state":"AP", "location":{"lat": 0.987565, "lng": -50.799169}},
"city":{"name": "Tartarugalzinho", "state":"AP", "location":{"lat": 1.506519, "lng": -50.908740}},
"city":{"name": "Oiapoque", "state":"AP", "location":{"lat": 3.840740, "lng": -51.833123}},
"city":{"name": "Calçoene", "state":"AP", "location":{"lat": 2.504747, "lng": -50.951233}},
"city":{"name": "Marechal Thaumaturgo", "state":"AC", "location":{"lat": -8.938983, "lng": -72.799704}},
"city":{"name": "Jordão", "state":"AC", "location":{"lat": -9.430912, "lng": -71.897391}},
"city":{"name": "Assis Brasil", "state":"AC", "location":{"lat": -10.929765, "lng": -69.573794}},
"city":{"name": "Santa Rosa do Purus", "state":"AC", "location":{"lat": -9.446515, "lng": -70.490250}},
"city":{"name": "Manoel Urbano", "state":"AC", "location":{"lat": -8.832911, "lng": -69.267862}},
"city":{"name": "Epitaciolândia", "state":"AC", "location":{"lat": -11.018771, "lng": -68.734109}},
"city":{"name": "Brasiléia", "state":"AC", "location":{"lat": -10.994994, "lng": -68.749696}},
"city":{"name": "Xapuri", "state":"AC", "location":{"lat": -10.651598, "lng": -68.496857}},
"city":{"name": "Capixaba", "state":"AC", "location":{"lat": -10.566031, "lng": -67.686006}},
"city":{"name": "Sena Madureira", "state":"AC", "location":{"lat": -9.063499, "lng": -68.671278}},
"city":{"name": "Senador Guiomard", "state":"AC", "location":{"lat": -10.149686, "lng": -67.736185}},
"city":{"name": "Envira", "state":"AM", "location":{"lat": -7.437889, "lng": -70.028143}},
"city":{"name": "Porto Acre", "state":"AC", "location":{"lat": -9.581378, "lng": -67.547815}},
"city":{"name": "Boca do Acre", "state":"AM", "location":{"lat": -8.742322, "lng": -67.391926}},
"city":{"name": "Mâncio Lima", "state":"AC", "location":{"lat": -7.616575, "lng": -72.899708}},
"city":{"name": "Porto Walter", "state":"AC", "location":{"lat": -8.263233, "lng": -72.753747}},
"city":{"name": "Rodrigues Alves", "state":"AC", "location":{"lat": -7.738638, "lng": -72.661015}},
"city":{"name": "Cruzeiro do Sul", "state":"AC", "location":{"lat": -7.627625, "lng": -72.675582}},
"city":{"name": "Guajará", "state":"AM", "location":{"lat": -7.537971, "lng": -72.590713}},
"city":{"name": "Ipixuna", "state":"AM", "location":{"lat": -7.047909, "lng": -71.693426}},
"city":{"name": "Eirunepé", "state":"AM", "location":{"lat": -6.656767, "lng": -69.866160}},
"city":{"name": "Amaturá", "state":"AM", "location":{"lat": -3.374547, "lng": -68.200456}},
"city":{"name": "Maçambara", "state":"RS", "location":{"lat": -29.144485, "lng": -56.067444}},
"city":{"name": "São Borja", "state":"RS", "location":{"lat": -28.657828, "lng": -56.003603}},
"city":{"name": "Garruchos", "state":"RS", "location":{"lat": -28.194414, "lng": -55.638284}},
"city":{"name": "Herval", "state":"RS", "location":{"lat": -32.023985, "lng": -53.394362}},
"city":{"name": "Arroio Grande", "state":"RS", "location":{"lat": -32.232657, "lng": -53.086155}},
"city":{"name": "Dom Feliciano", "state":"RS", "location":{"lat": -30.700354, "lng": -52.102645}},
"city":{"name": "Chuvisca", "state":"RS", "location":{"lat": -30.750410, "lng": -51.973659}},
"city":{"name": "Atalaia do Norte", "state":"AM", "location":{"lat": -4.370551, "lng": -70.196700}},
"city":{"name": "Benjamin Constant", "state":"AM", "location":{"lat": -4.377680, "lng": -70.034157}},
"city":{"name": "Tabatinga", "state":"AM", "location":{"lat": -4.241597, "lng": -69.938273}},
"city":{"name": "Itamarati", "state":"AM", "location":{"lat": -6.424591, "lng": -68.260027}},
"city":{"name": "São Paulo de Olivença", "state":"AM", "location":{"lat": -3.472919, "lng": -68.964581}},
"city":{"name": "Santo Antônio do Içá", "state":"AM", "location":{"lat": -3.095443, "lng": -67.946279}},
"city":{"name": "Tonantins", "state":"AM", "location":{"lat": -2.865825, "lng": -67.791904}},
"city":{"name": "Chuí", "state":"RS", "location":{"lat": -33.686630, "lng": -53.459369}},
"city":{"name": "Barra do Quaraí", "state":"RS", "location":{"lat": -30.202859, "lng": -57.549722}},
"city":{"name": "Uruguaiana", "state":"RS", "location":{"lat": -29.761436, "lng": -57.085287}},
"city":{"name": "Quaraí", "state":"RS", "location":{"lat": -30.384033, "lng": -56.448254}},
"city":{"name": "Alegrete", "state":"RS", "location":{"lat": -29.790166, "lng": -55.794862}},
"city":{"name": "Sant' Ana do Livramento", "state":"RS", "location":{"lat": -30.887720, "lng": -55.531467}},
"city":{"name": "Dom Pedrito", "state":"RS", "location":{"lat": -30.975590, "lng": -54.669360}},
"city":{"name": "Manoel Viana", "state":"RS", "location":{"lat": -29.585935, "lng": -55.484112}},
"city":{"name": "São Francisco de Assis", "state":"RS", "location":{"lat": -29.554689, "lng": -55.125310}},
"city":{"name": "Rosário do Sul", "state":"RS", "location":{"lat": -30.251483, "lng": -54.922106}},
"city":{"name": "Cacequi", "state":"RS", "location":{"lat": -29.888295, "lng": -54.821998}},
"city":{"name": "Nova Esperança do Sul", "state":"RS", "location":{"lat": -29.406643, "lng": -54.829302}},
"city":{"name": "São Vicente do Sul", "state":"RS", "location":{"lat": -29.688161, "lng": -54.682643}},
"city":{"name": "Jaguari", "state":"RS", "location":{"lat": -29.493559, "lng": -54.702993}},
"city":{"name": "Itaqui", "state":"RS", "location":{"lat": -29.131051, "lng": -56.551478}},
"city":{"name": "Pinheiro Machado", "state":"RS", "location":{"lat": -31.579440, "lng": -53.379789}},
"city":{"name": "Pedro Osório", "state":"RS", "location":{"lat": -31.864243, "lng": -52.818389}},
"city":{"name": "Cerrito", "state":"RS", "location":{"lat": -31.841917, "lng": -52.800442}},
"city":{"name": "Capão do Leão", "state":"RS", "location":{"lat": -31.756460, "lng": -52.488879}},
"city":{"name": "Morro Redondo", "state":"RS", "location":{"lat": -31.588737, "lng": -52.626064}},
"city":{"name": "Bagé", "state":"RS", "location":{"lat": -31.329650, "lng": -54.099920}},
"city":{"name": "Hulha Negra", "state":"RS", "location":{"lat": -31.406721, "lng": -53.866702}},
"city":{"name": "Unistalda", "state":"RS", "location":{"lat": -29.039953, "lng": -55.151731}},
"city":{"name": "Itacurubi", "state":"RS", "location":{"lat": -28.791281, "lng": -55.244670}},
"city":{"name": "Santo Antônio das Missões", "state":"RS", "location":{"lat": -28.513977, "lng": -55.225077}},
"city":{"name": "Santiago", "state":"RS", "location":{"lat": -29.189675, "lng": -54.866624}},
"city":{"name": "Bossoroca", "state":"RS", "location":{"lat": -28.729089, "lng": -54.903507}},
"city":{"name": "São Luiz Gonzaga", "state":"RS", "location":{"lat": -28.412032, "lng": -54.955942}},
"city":{"name": "São Miguel das Missões", "state":"RS", "location":{"lat": -28.556044, "lng": -54.555879}},
"city":{"name": "São Nicolau", "state":"RS", "location":{"lat": -28.183365, "lng": -55.265441}},
"city":{"name": "Dezesseis de Novembro", "state":"RS", "location":{"lat": -28.219036, "lng": -55.061709}},
"city":{"name": "Pirapó", "state":"RS", "location":{"lat": -28.043888, "lng": -55.200130}},
"city":{"name": "Porto Xavier", "state":"RS", "location":{"lat": -27.908182, "lng": -55.137910}},
"city":{"name": "Roque Gonzales", "state":"RS", "location":{"lat": -28.129681, "lng": -55.026609}},
"city":{"name": "São Pedro do Butiá", "state":"RS", "location":{"lat": -28.124250, "lng": -54.892603}},
"city":{"name": "Salvador das Missões", "state":"RS", "location":{"lat": -28.123337, "lng": -54.837318}},
"city":{"name": "São Paulo das Missões", "state":"RS", "location":{"lat": -28.019546, "lng": -54.940352}},
"city":{"name": "Porto Lucena", "state":"RS", "location":{"lat": -27.856880, "lng": -55.010028}},
"city":{"name": "Campina das Missões", "state":"RS", "location":{"lat": -27.988833, "lng": -54.841648}},
"city":{"name": "Sério", "state":"RS", "location":{"lat": -29.390428, "lng": -52.268500}},
"city":{"name": "Mato Leitão", "state":"RS", "location":{"lat": -29.528474, "lng": -52.127760}},
"city":{"name": "Santa Clara do Sul", "state":"RS", "location":{"lat": -29.474740, "lng": -52.084260}},
"city":{"name": "Cruzeiro do Sul", "state":"RS", "location":{"lat": -29.514835, "lng": -51.992778}},
"city":{"name": "Bom Retiro do Sul", "state":"RS", "location":{"lat": -29.607076, "lng": -51.945593}},
"city":{"name": "Estrela", "state":"RS", "location":{"lat": -29.500207, "lng": -51.949508}},
"city":{"name": "Lajeado", "state":"RS", "location":{"lat": -29.459086, "lng": -51.964427}},
"city":{"name": "Arroio do Meio", "state":"RS", "location":{"lat": -29.401353, "lng": -51.955735}},
"city":{"name": "Barão do Triunfo", "state":"RS", "location":{"lat": -30.389072, "lng": -51.738441}},
"city":{"name": "Arroio dos Ratos", "state":"RS", "location":{"lat": -30.087545, "lng": -51.727479}},
"city":{"name": "São Jerônimo", "state":"RS", "location":{"lat": -29.971580, "lng": -51.725070}},
"city":{"name": "General Câmara", "state":"RS", "location":{"lat": -29.903173, "lng": -51.761178}},
"city":{"name": "Triunfo", "state":"RS", "location":{"lat": -29.929129, "lng": -51.707471}},
"city":{"name": "Mariana Pimentel", "state":"RS", "location":{"lat": -30.353048, "lng": -51.580307}},
"city":{"name": "Eldorado do Sul", "state":"RS", "location":{"lat": -30.084676, "lng": -51.618702}},
"city":{"name": "Charqueadas", "state":"RS", "location":{"lat": -29.962478, "lng": -51.628872}},
"city":{"name": "Taquari", "state":"RS", "location":{"lat": -29.794330, "lng": -51.865346}},
"city":{"name": "Tabaí", "state":"RS", "location":{"lat": -29.643041, "lng": -51.682292}},
"city":{"name": "Fazenda Vilanova", "state":"RS", "location":{"lat": -29.588511, "lng": -51.821714}},
"city":{"name": "Colinas", "state":"RS", "location":{"lat": -29.394781, "lng": -51.855564}},
"city":{"name": "Teutônia", "state":"RS", "location":{"lat": -29.448205, "lng": -51.804375}},
"city":{"name": "Paverama", "state":"RS", "location":{"lat": -29.548554, "lng": -51.733925}},
"city":{"name": "Poço das Antas", "state":"RS", "location":{"lat": -29.448097, "lng": -51.671938}},
"city":{"name": "Montenegro", "state":"RS", "location":{"lat": -29.682414, "lng": -51.467903}},
"city":{"name": "Pareci Novo", "state":"RS", "location":{"lat": -29.636538, "lng": -51.397400}},
"city":{"name": "Brochier", "state":"RS", "location":{"lat": -29.550136, "lng": -51.594516}},
"city":{"name": "Maratá", "state":"RS", "location":{"lat": -29.545715, "lng": -51.557320}},
"city":{"name": "Mundo Novo", "state":"MS", "location":{"lat": -23.935540, "lng": -54.281012}},
"city":{"name": "Eldorado", "state":"MS", "location":{"lat": -23.786838, "lng": -54.283775}},
"city":{"name": "Guaíra", "state":"PR", "location":{"lat": -24.085005, "lng": -54.257327}},
"city":{"name": "Itaquiraí", "state":"MS", "location":{"lat": -23.477868, "lng": -54.186971}},
"city":{"name": "Altônia", "state":"PR", "location":{"lat": -23.875916, "lng": -53.895809}},
"city":{"name": "Francisco Alves", "state":"PR", "location":{"lat": -24.066725, "lng": -53.846124}},
"city":{"name": "São Jorge do Patrocínio", "state":"PR", "location":{"lat": -23.764744, "lng": -53.882275}},
"city":{"name": "Esperança Nova", "state":"PR", "location":{"lat": -23.723782, "lng": -53.810979}},
"city":{"name": "Sales Oliveira", "state":"SP", "location":{"lat": -20.769612, "lng": -47.836873}},
"city":{"name": "Glória de Dourados", "state":"MS", "location":{"lat": -22.413628, "lng": -54.233502}},
"city":{"name": "Deodápolis", "state":"MS", "location":{"lat": -22.276272, "lng": -54.168163}},
"city":{"name": "Novo Horizonte do Sul", "state":"MS", "location":{"lat": -22.669322, "lng": -53.860148}},
"city":{"name": "Ivinhema", "state":"MS", "location":{"lat": -22.304571, "lng": -53.818414}},
"city":{"name": "Angélica", "state":"MS", "location":{"lat": -22.152658, "lng": -53.770789}},
"city":{"name": "Nova Alvorada do Sul", "state":"MS", "location":{"lat": -21.465688, "lng": -54.382491}},
"city":{"name": "Santa Cruz de Monte Castelo", "state":"PR", "location":{"lat": -22.954225, "lng": -53.296342}},
"city":{"name": "São Pedro do Paraná", "state":"PR", "location":{"lat": -22.823882, "lng": -53.224141}},
"city":{"name": "Porto Rico", "state":"PR", "location":{"lat": -22.774742, "lng": -53.267731}},
"city":{"name": "São João do Pau d'Alho", "state":"SP", "location":{"lat": -21.266249, "lng": -51.667172}},
"city":{"name": "Dracena", "state":"SP", "location":{"lat": -21.484311, "lng": -51.535034}},
"city":{"name": "Tupi Paulista", "state":"SP", "location":{"lat": -21.382455, "lng": -51.575004}},
"city":{"name": "Monte Castelo", "state":"SP", "location":{"lat": -21.298092, "lng": -51.567889}},
"city":{"name": "Nova Independência", "state":"SP", "location":{"lat": -21.102630, "lng": -51.490531}},
"city":{"name": "Bela Vista do Paraíso", "state":"PR", "location":{"lat": -22.993653, "lng": -51.192657}},
"city":{"name": "Porecatu", "state":"PR", "location":{"lat": -22.753724, "lng": -51.379490}},
"city":{"name": "Alvorada do Sul", "state":"PR", "location":{"lat": -22.781282, "lng": -51.229709}},
"city":{"name": "Nantes", "state":"SP", "location":{"lat": -22.615559, "lng": -51.239977}},
"city":{"name": "Jaraguari", "state":"MS", "location":{"lat": -20.138615, "lng": -54.399626}},
"city":{"name": "Bandeirantes", "state":"MS", "location":{"lat": -19.927490, "lng": -54.358458}},
"city":{"name": "Ribas do Rio Pardo", "state":"MS", "location":{"lat": -20.444533, "lng": -53.758819}},
"city":{"name": "Camapuã", "state":"MS", "location":{"lat": -19.534672, "lng": -54.043065}},
"city":{"name": "Água Clara", "state":"MS", "location":{"lat": -20.445245, "lng": -52.878990}},
"city":{"name": "Alcinópolis", "state":"MS", "location":{"lat": -18.325546, "lng": -53.704223}},
"city":{"name": "Itiquira", "state":"MT", "location":{"lat": -17.214693, "lng": -54.142214}},
"city":{"name": "Alto Garças", "state":"MT", "location":{"lat": -16.946226, "lng": -53.527209}},
"city":{"name": "Costa Rica", "state":"MS", "location":{"lat": -18.543202, "lng": -53.128732}},
"city":{"name": "Cerro Largo", "state":"RS", "location":{"lat": -28.146251, "lng": -54.742791}},
"city":{"name": "Caibaté", "state":"RS", "location":{"lat": -28.290475, "lng": -54.645407}},
"city":{"name": "Guarani das Missões", "state":"RS", "location":{"lat": -28.149117, "lng": -54.562937}},
"city":{"name": "Cândido Godói", "state":"RS", "location":{"lat": -27.951509, "lng": -54.751722}},
"city":{"name": "Ubiretama", "state":"RS", "location":{"lat": -28.040385, "lng": -54.685952}},
"city":{"name": "Santo Cristo", "state":"RS", "location":{"lat": -27.826259, "lng": -54.661963}},
"city":{"name": "Senador Salgado Filho", "state":"RS", "location":{"lat": -28.025007, "lng": -54.550717}},
"city":{"name": "Porto Vera Cruz", "state":"RS", "location":{"lat": -27.740504, "lng": -54.899370}},
"city":{"name": "Alecrim", "state":"RS", "location":{"lat": -27.657856, "lng": -54.764849}},
"city":{"name": "Porto Mauá", "state":"RS", "location":{"lat": -27.579579, "lng": -54.665739}},
"city":{"name": "Foz do Iguaçu", "state":"PR", "location":{"lat": -25.542748, "lng": -54.582689}},
"city":{"name": "Candiota", "state":"RS", "location":{"lat": -31.551553, "lng": -53.677275}},
"city":{"name": "Santa Vitória do Palmar", "state":"RS", "location":{"lat": -33.524980, "lng": -53.371692}},
"city":{"name": "Jaguarão", "state":"RS", "location":{"lat": -32.560378, "lng": -53.377027}},
"city":{"name": "Lavras do Sul", "state":"RS", "location":{"lat": -30.807056, "lng": -53.893077}},
"city":{"name": "Caçapava do Sul", "state":"RS", "location":{"lat": -30.514360, "lng": -53.482684}},
"city":{"name": "São Gabriel", "state":"RS", "location":{"lat": -30.333688, "lng": -54.321657}},
"city":{"name": "Mata", "state":"RS", "location":{"lat": -29.564893, "lng": -54.464105}},
"city":{"name": "Dilermando de Aguiar", "state":"RS", "location":{"lat": -29.705393, "lng": -54.212241}},
"city":{"name": "São Pedro do Sul", "state":"RS", "location":{"lat": -29.620163, "lng": -54.185516}},
"city":{"name": "Toropi", "state":"RS", "location":{"lat": -29.478246, "lng": -54.224398}},
"city":{"name": "Vila Nova do Sul", "state":"RS", "location":{"lat": -30.346131, "lng": -53.876041}},
"city":{"name": "São Sepé", "state":"RS", "location":{"lat": -30.164289, "lng": -53.560296}},
"city":{"name": "Formigueiro", "state":"RS", "location":{"lat": -30.003518, "lng": -53.495928}},
"city":{"name": "Santa Maria", "state":"RS", "location":{"lat": -29.686817, "lng": -53.814946}},
"city":{"name": "São Martinho da Serra", "state":"RS", "location":{"lat": -29.539667, "lng": -53.859002}},
"city":{"name": "Itaara", "state":"RS", "location":{"lat": -29.601285, "lng": -53.772494}},
"city":{"name": "Silveira Martins", "state":"RS", "location":{"lat": -29.646741, "lng": -53.591018}},
"city":{"name": "Ivorá", "state":"RS", "location":{"lat": -29.523224, "lng": -53.584214}},
"city":{"name": "Piratini", "state":"RS", "location":{"lat": -31.447291, "lng": -53.097296}},
"city":{"name": "Santana da Boa Vista", "state":"RS", "location":{"lat": -30.869738, "lng": -53.109981}},
"city":{"name": "Canguçu", "state":"RS", "location":{"lat": -31.395980, "lng": -52.678254}},
"city":{"name": "Encruzilhada do Sul", "state":"RS", "location":{"lat": -30.542998, "lng": -52.520381}},
"city":{"name": "Restinga Seca", "state":"RS", "location":{"lat": -29.818778, "lng": -53.380657}},
"city":{"name": "Agudo", "state":"RS", "location":{"lat": -29.644743, "lng": -53.251458}},
"city":{"name": "Faxinal do Soturno", "state":"RS", "location":{"lat": -29.578836, "lng": -53.448390}},
"city":{"name": "São João do Polêsine", "state":"RS", "location":{"lat": -29.619435, "lng": -53.443920}},
"city":{"name": "Dona Francisca", "state":"RS", "location":{"lat": -29.619507, "lng": -53.361737}},
"city":{"name": "Nova Palma", "state":"RS", "location":{"lat": -29.470981, "lng": -53.468924}},
"city":{"name": "Nicolau Vergueiro", "state":"RS", "location":{"lat": -28.529842, "lng": -52.467629}},
"city":{"name": "Palmeira das Missões", "state":"RS", "location":{"lat": -27.900652, "lng": -53.313378}},
"city":{"name": "Chapada", "state":"RS", "location":{"lat": -28.055865, "lng": -53.066519}},
"city":{"name": "Novo Barreiro", "state":"RS", "location":{"lat": -27.907700, "lng": -53.110292}},
"city":{"name": "Barra Funda", "state":"RS", "location":{"lat": -27.920467, "lng": -53.039067}},
"city":{"name": "Nova Boa Vista", "state":"RS", "location":{"lat": -27.992600, "lng": -52.978377}},
"city":{"name": "Boa Vista das Missões", "state":"RS", "location":{"lat": -27.667123, "lng": -53.310168}},
"city":{"name": "Jaboticaba", "state":"RS", "location":{"lat": -27.634703, "lng": -53.276173}},
"city":{"name": "Taquaruçu do Sul", "state":"RS", "location":{"lat": -27.400452, "lng": -53.470250}},
"city":{"name": "Seberi", "state":"RS", "location":{"lat": -27.482861, "lng": -53.402634}},
"city":{"name": "Caiçara", "state":"RS", "location":{"lat": -27.279121, "lng": -53.425670}},
"city":{"name": "Frederico Westphalen", "state":"RS", "location":{"lat": -27.358644, "lng": -53.395824}},
"city":{"name": "Cristal do Sul", "state":"RS", "location":{"lat": -27.451995, "lng": -53.242227}},
"city":{"name": "Lajeado do Bugre", "state":"RS", "location":{"lat": -27.691310, "lng": -53.181811}},
"city":{"name": "São José das Missões", "state":"RS", "location":{"lat": -27.778908, "lng": -53.122595}},
"city":{"name": "Sagrada Família", "state":"RS", "location":{"lat": -27.708538, "lng": -53.135053}},
"city":{"name": "Cerro Grande", "state":"RS", "location":{"lat": -27.610621, "lng": -53.167233}},
"city":{"name": "Novo Tiradentes", "state":"RS", "location":{"lat": -27.564918, "lng": -53.183715}},
"city":{"name": "Constantina", "state":"RS", "location":{"lat": -27.731974, "lng": -52.993799}},
"city":{"name": "Liberato Salzano", "state":"RS", "location":{"lat": -27.600959, "lng": -53.075330}},
"city":{"name": "Centenário", "state":"RS", "location":{"lat": -27.761547, "lng": -51.998408}},
"city":{"name": "Carlos Gomes", "state":"RS", "location":{"lat": -27.716679, "lng": -51.912127}},
"city":{"name": "Viadutos", "state":"RS", "location":{"lat": -27.571566, "lng": -52.021144}},
"city":{"name": "Três Arroios", "state":"RS", "location":{"lat": -27.500273, "lng": -52.144753}},
"city":{"name": "Severiano de Almeida", "state":"RS", "location":{"lat": -27.436202, "lng": -52.121704}},
"city":{"name": "Mariano Moro", "state":"RS", "location":{"lat": -27.356753, "lng": -52.146661}},
"city":{"name": "Marcelino Ramos", "state":"RS", "location":{"lat": -27.467622, "lng": -51.909503}},
"city":{"name": "Ibiaçá", "state":"RS", "location":{"lat": -28.056556, "lng": -51.859851}},
"city":{"name": "Caseiros", "state":"RS", "location":{"lat": -28.258160, "lng": -51.686108}},
"city":{"name": "Sananduva", "state":"RS", "location":{"lat": -27.947028, "lng": -51.807949}},
"city":{"name": "São João da Urtiga", "state":"RS", "location":{"lat": -27.819507, "lng": -51.825664}},
"city":{"name": "Santo Expedito do Sul", "state":"RS", "location":{"lat": -27.907439, "lng": -51.643352}},
"city":{"name": "Lagoa Vermelha", "state":"RS", "location":{"lat": -28.209335, "lng": -51.524815}},
"city":{"name": "Rolante", "state":"RS", "location":{"lat": -29.646240, "lng": -50.581937}},
"city":{"name": "Caraá", "state":"RS", "location":{"lat": -29.786933, "lng": -50.431614}},
"city":{"name": "Riozinho", "state":"RS", "location":{"lat": -29.638986, "lng": -50.448781}},
"city":{"name": "São Francisco de Paula", "state":"RS", "location":{"lat": -29.440366, "lng": -50.582796}},
"city":{"name": "Jari", "state":"RS", "location":{"lat": -29.292234, "lng": -54.223711}},
"city":{"name": "Quevedos", "state":"RS", "location":{"lat": -29.350413, "lng": -54.078915}},
"city":{"name": "Vitória das Missões", "state":"RS", "location":{"lat": -28.351612, "lng": -54.504022}},
"city":{"name": "Entre-Ijuís", "state":"RS", "location":{"lat": -28.368556, "lng": -54.268588}},
"city":{"name": "Jóia", "state":"RS", "location":{"lat": -28.643484, "lng": -54.114131}},
"city":{"name": "Eugênio de Castro", "state":"RS", "location":{"lat": -28.531467, "lng": -54.150590}},
"city":{"name": "Coronel Barros", "state":"RS", "location":{"lat": -28.392148, "lng": -54.068621}},
"city":{"name": "Dois Vizinhos", "state":"PR", "location":{"lat": -25.740694, "lng": -53.057016}},
"city":{"name": "Nova Prata do Iguaçu", "state":"PR", "location":{"lat": -25.630908, "lng": -53.346862}},
"city":{"name": "Boa Vista da Aparecida", "state":"PR", "location":{"lat": -25.430755, "lng": -53.411694}},
"city":{"name": "Boa Esperança do Iguaçu", "state":"PR", "location":{"lat": -25.632435, "lng": -53.210818}},
"city":{"name": "Cruzeiro do Iguaçu", "state":"PR", "location":{"lat": -25.619214, "lng": -53.128484}},
"city":{"name": "Três Barras do Paraná", "state":"PR", "location":{"lat": -25.418517, "lng": -53.183350}},
"city":{"name": "Catanduvas", "state":"PR", "location":{"lat": -25.204356, "lng": -53.154826}},
"city":{"name": "Bom Sucesso do Sul", "state":"PR", "location":{"lat": -26.073113, "lng": -52.835297}},
"city":{"name": "Itapejara d'Oeste", "state":"PR", "location":{"lat": -25.962030, "lng": -52.813823}},
"city":{"name": "Verê", "state":"PR", "location":{"lat": -25.877201, "lng": -52.905108}},
"city":{"name": "São Jorge d'Oeste", "state":"PR", "location":{"lat": -25.699002, "lng": -52.913092}},
"city":{"name": "São João", "state":"PR", "location":{"lat": -25.821375, "lng": -52.725240}},
"city":{"name": "Sulina", "state":"PR", "location":{"lat": -25.706553, "lng": -52.729869}},
"city":{"name": "Coronel Vivida", "state":"PR", "location":{"lat": -25.976686, "lng": -52.564054}},
"city":{"name": "Saudade do Iguaçu", "state":"PR", "location":{"lat": -25.691686, "lng": -52.618391}},
"city":{"name": "Chopinzinho", "state":"PR", "location":{"lat": -25.851546, "lng": -52.517293}},
"city":{"name": "Quedas do Iguaçu", "state":"PR", "location":{"lat": -25.449161, "lng": -52.910231}},
"city":{"name": "Espigão Alto do Iguaçu", "state":"PR", "location":{"lat": -25.421635, "lng": -52.834798}},
"city":{"name": "Rio Bonito do Iguaçu", "state":"PR", "location":{"lat": -25.487384, "lng": -52.529206}},
"city":{"name": "Nova Laranjeiras", "state":"PR", "location":{"lat": -25.305376, "lng": -52.544682}},
"city":{"name": "Boqueirão do Leão", "state":"RS", "location":{"lat": -29.304620, "lng": -52.428432}},
"city":{"name": "Progresso", "state":"RS", "location":{"lat": -29.244147, "lng": -52.319721}},
"city":{"name": "Caçador", "state":"SC", "location":{"lat": -26.775670, "lng": -51.012004}},
"city":{"name": "General Carneiro", "state":"PR", "location":{"lat": -26.424974, "lng": -51.317224}},
"city":{"name": "Matos Costa", "state":"SC", "location":{"lat": -26.470870, "lng": -51.150095}},
"city":{"name": "Calmon", "state":"SC", "location":{"lat": -26.594241, "lng": -51.095017}},
"city":{"name": "União da Vitória", "state":"PR", "location":{"lat": -26.227319, "lng": -51.087313}},
"city":{"name": "Porto União", "state":"SC", "location":{"lat": -26.245075, "lng": -51.075858}},
"city":{"name": "Frei Rogério", "state":"SC", "location":{"lat": -27.175021, "lng": -50.807621}},
"city":{"name": "Lebon Régis", "state":"SC", "location":{"lat": -26.927987, "lng": -50.692109}},
"city":{"name": "Ponte Alta do Norte", "state":"SC", "location":{"lat": -27.159112, "lng": -50.465947}},
"city":{"name": "Santa Cecília", "state":"SC", "location":{"lat": -26.959182, "lng": -50.425170}},
"city":{"name": "Timbó Grande", "state":"SC", "location":{"lat": -26.612671, "lng": -50.660720}},
"city":{"name": "Nioaque", "state":"MS", "location":{"lat": -21.141882, "lng": -55.829618}},
"city":{"name": "Laguna Carapã", "state":"MS", "location":{"lat": -22.544818, "lng": -55.150210}},
"city":{"name": "Caarapó", "state":"MS", "location":{"lat": -22.636764, "lng": -54.820928}},
"city":{"name": "Juti", "state":"MS", "location":{"lat": -22.859637, "lng": -54.606120}},
"city":{"name": "Dourados", "state":"MS", "location":{"lat": -22.223099, "lng": -54.812043}},
"city":{"name": "Itaporã", "state":"MS", "location":{"lat": -22.080035, "lng": -54.793381}},
"city":{"name": "Douradina", "state":"MS", "location":{"lat": -22.040494, "lng": -54.615756}},
"city":{"name": "Maracaju", "state":"MS", "location":{"lat": -21.610544, "lng": -55.167763}},
"city":{"name": "Rio Brilhante", "state":"MS", "location":{"lat": -21.803258, "lng": -54.542744}},
"city":{"name": "Bodoquena", "state":"MS", "location":{"lat": -20.536983, "lng": -56.712716}},
"city":{"name": "Corumbá", "state":"MS", "location":{"lat": -19.007727, "lng": -57.651036}},
"city":{"name": "Ladário", "state":"MS", "location":{"lat": -19.008894, "lng": -57.597266}},
"city":{"name": "Miranda", "state":"MS", "location":{"lat": -20.235508, "lng": -56.374594}},
"city":{"name": "Anastácio", "state":"MS", "location":{"lat": -20.482292, "lng": -55.810353}},
"city":{"name": "Aquidauana", "state":"MS", "location":{"lat": -20.466552, "lng": -55.786788}},
"city":{"name": "Dois Irmãos do Buriti", "state":"MS", "location":{"lat": -20.684818, "lng": -55.291453}},
"city":{"name": "Sidrolândia", "state":"MS", "location":{"lat": -20.930212, "lng": -54.969219}},
"city":{"name": "Terenos", "state":"MS", "location":{"lat": -20.437845, "lng": -54.864742}},
"city":{"name": "Rochedo", "state":"MS", "location":{"lat": -19.956488, "lng": -54.884769}},
"city":{"name": "Corguinho", "state":"MS", "location":{"lat": -19.824281, "lng": -54.828074}},
"city":{"name": "Rio Negro", "state":"MS", "location":{"lat": -19.447036, "lng": -54.985873}},
"city":{"name": "Rio Verde de Mato Grosso", "state":"MS", "location":{"lat": -18.924945, "lng": -54.843357}},
"city":{"name": "São Gabriel do Oeste", "state":"MS", "location":{"lat": -19.388858, "lng": -54.550668}},
"city":{"name": "Tupanci do Sul", "state":"RS", "location":{"lat": -27.924085, "lng": -51.538283}},
"city":{"name": "Maximiliano de Almeida", "state":"RS", "location":{"lat": -27.632518, "lng": -51.802049}},
"city":{"name": "Paim Filho", "state":"RS", "location":{"lat": -27.707516, "lng": -51.762988}},
"city":{"name": "Cacique Doble", "state":"RS", "location":{"lat": -27.767044, "lng": -51.659671}},
"city":{"name": "Machadinho", "state":"RS", "location":{"lat": -27.566669, "lng": -51.666805}},
"city":{"name": "Alto Bela Vista", "state":"SC", "location":{"lat": -27.433346, "lng": -51.904435}},
"city":{"name": "Ipira", "state":"SC", "location":{"lat": -27.403818, "lng": -51.775790}},
"city":{"name": "Peritiba", "state":"SC", "location":{"lat": -27.375449, "lng": -51.901793}},
"city":{"name": "Piratuba", "state":"SC", "location":{"lat": -27.424228, "lng": -51.766834}},
"city":{"name": "São José do Ouro", "state":"RS", "location":{"lat": -27.770679, "lng": -51.596620}},
"city":{"name": "Barracão", "state":"RS", "location":{"lat": -27.673862, "lng": -51.458550}},
"city":{"name": "Zortéa", "state":"SC", "location":{"lat": -27.452065, "lng": -51.551993}},
"city":{"name": "Ouro", "state":"SC", "location":{"lat": -27.337905, "lng": -51.619373}},
"city":{"name": "Capinzal", "state":"SC", "location":{"lat": -27.347295, "lng": -51.605702}},
"city":{"name": "Erval Velho", "state":"SC", "location":{"lat": -27.274321, "lng": -51.442990}},
"city":{"name": "Farroupilha", "state":"RS", "location":{"lat": -29.222689, "lng": -51.341853}},
"city":{"name": "Caxias do Sul", "state":"RS", "location":{"lat": -29.162905, "lng": -51.179161}},
"city":{"name": "Presidente Prudente", "state":"SP", "location":{"lat": -22.120654, "lng": -51.392526}},
"city":{"name": "Bataguassu", "state":"MS", "location":{"lat": -21.715899, "lng": -52.422058}},
"city":{"name": "Presidente Epitácio", "state":"SP", "location":{"lat": -21.765074, "lng": -52.111140}},
"city":{"name": "Caiuá", "state":"SP", "location":{"lat": -21.832164, "lng": -51.996918}},
"city":{"name": "Junqueirópolis", "state":"SP", "location":{"lat": -21.510348, "lng": -51.434187}},
"city":{"name": "Panorama", "state":"SP", "location":{"lat": -21.353973, "lng": -51.856185}},
"city":{"name": "Paulicéia", "state":"SP", "location":{"lat": -21.315262, "lng": -51.832098}},
"city":{"name": "Ouro Verde", "state":"SP", "location":{"lat": -21.487150, "lng": -51.702398}},
"city":{"name": "Santa Mercedes", "state":"SP", "location":{"lat": -21.349521, "lng": -51.756353}},
"city":{"name": "Nova Guataporanga", "state":"SP", "location":{"lat": -21.331968, "lng": -51.644655}},
"city":{"name": "Paraíso do Sul", "state":"RS", "location":{"lat": -29.671705, "lng": -53.144034}},
"city":{"name": "Ibarama", "state":"RS", "location":{"lat": -29.420321, "lng": -53.129493}},
"city":{"name": "Sobradinho", "state":"RS", "location":{"lat": -29.419439, "lng": -53.032625}},
"city":{"name": "Passa Sete", "state":"RS", "location":{"lat": -29.457667, "lng": -52.959945}},
"city":{"name": "Cachoeira do Sul", "state":"RS", "location":{"lat": -30.032988, "lng": -52.892756}},
"city":{"name": "Novo Cabrais", "state":"RS", "location":{"lat": -29.733752, "lng": -52.948940}},
"city":{"name": "Cerro Branco", "state":"RS", "location":{"lat": -29.656986, "lng": -52.940610}},
"city":{"name": "Candelária", "state":"RS", "location":{"lat": -29.668391, "lng": -52.789495}},
"city":{"name": "Vera Cruz", "state":"RS", "location":{"lat": -29.718435, "lng": -52.515176}},
"city":{"name": "Santa Cruz do Sul", "state":"RS", "location":{"lat": -29.722021, "lng": -52.434318}},
"city":{"name": "Vale do Sol", "state":"RS", "location":{"lat": -29.596724, "lng": -52.683901}},
"city":{"name": "Herveiras", "state":"RS", "location":{"lat": -29.455239, "lng": -52.655314}},
"city":{"name": "Sinimbu", "state":"RS", "location":{"lat": -29.535659, "lng": -52.530449}},
"city":{"name": "Rio Grande", "state":"RS", "location":{"lat": -32.034875, "lng": -52.107050}},
"city":{"name": "São José do Norte", "state":"RS", "location":{"lat": -32.015129, "lng": -52.033085}},
"city":{"name": "Pelotas", "state":"RS", "location":{"lat": -31.764898, "lng": -52.337058}},
"city":{"name": "Turuçu", "state":"RS", "location":{"lat": -31.417284, "lng": -52.170590}},
"city":{"name": "São Lourenço do Sul", "state":"RS", "location":{"lat": -31.356374, "lng": -51.971531}},
"city":{"name": "Cristal", "state":"RS", "location":{"lat": -31.004634, "lng": -52.043618}},
"city":{"name": "Amaral Ferrador", "state":"RS", "location":{"lat": -30.875579, "lng": -52.250951}},
"city":{"name": "Camaquã", "state":"RS", "location":{"lat": -30.848897, "lng": -51.804310}},
"city":{"name": "Saldanha Marinho", "state":"RS", "location":{"lat": -28.394081, "lng": -53.097006}},
"city":{"name": "Colorado", "state":"RS", "location":{"lat": -28.525842, "lng": -52.992820}},
"city":{"name": "Lagoão", "state":"RS", "location":{"lat": -29.234796, "lng": -52.799698}},
"city":{"name": "Palma Sola", "state":"SC", "location":{"lat": -26.347069, "lng": -53.277091}},
"city":{"name": "Flor da Serra do Sul", "state":"PR", "location":{"lat": -26.252326, "lng": -53.309213}},
"city":{"name": "Tigrinhos", "state":"SC", "location":{"lat": -26.687610, "lng": -53.154529}},
"city":{"name": "Santa Terezinha do Progresso", "state":"SC", "location":{"lat": -26.624030, "lng": -53.199716}},
"city":{"name": "Bom Jesus do Oeste", "state":"SC", "location":{"lat": -26.692737, "lng": -53.096725}},
"city":{"name": "Serra Alta", "state":"SC", "location":{"lat": -26.722898, "lng": -53.040870}},
"city":{"name": "Sul Brasil", "state":"SC", "location":{"lat": -26.735148, "lng": -52.963965}},
"city":{"name": "Saltinho", "state":"SC", "location":{"lat": -26.604932, "lng": -53.057763}},
"city":{"name": "Campo Erê", "state":"SC", "location":{"lat": -26.393056, "lng": -53.085614}},
"city":{"name": "Nova Prata", "state":"RS", "location":{"lat": -28.779913, "lng": -51.611271}},
"city":{"name": "André da Rocha", "state":"RS", "location":{"lat": -28.628294, "lng": -51.579729}},
"city":{"name": "Protásio Alves", "state":"RS", "location":{"lat": -28.757189, "lng": -51.475700}},
"city":{"name": "Ibiraiaras", "state":"RS", "location":{"lat": -28.374095, "lng": -51.637670}},
"city":{"name": "Santa Mônica", "state":"PR", "location":{"lat": -23.108005, "lng": -53.110297}},
"city":{"name": "Tapira", "state":"PR", "location":{"lat": -23.319343, "lng": -53.068446}},
"city":{"name": "Tuneiras do Oeste", "state":"PR", "location":{"lat": -23.864798, "lng": -52.876874}},
"city":{"name": "Tapejara", "state":"PR", "location":{"lat": -23.731462, "lng": -52.873487}},
"city":{"name": "Farol", "state":"PR", "location":{"lat": -24.095842, "lng": -52.621693}},
"city":{"name": "Cerro Grande do Sul", "state":"RS", "location":{"lat": -30.590472, "lng": -51.741846}},
"city":{"name": "Arambaré", "state":"RS", "location":{"lat": -30.909248, "lng": -51.504586}},
"city":{"name": "Sentinela do Sul", "state":"RS", "location":{"lat": -30.610707, "lng": -51.586154}},
"city":{"name": "Sertão Santana", "state":"RS", "location":{"lat": -30.456183, "lng": -51.601694}},
"city":{"name": "Tapes", "state":"RS", "location":{"lat": -30.668308, "lng": -51.399140}},
"city":{"name": "Pantano Grande", "state":"RS", "location":{"lat": -30.190155, "lng": -52.372915}},
"city":{"name": "Rio Pardo", "state":"RS", "location":{"lat": -29.988030, "lng": -52.371130}},
"city":{"name": "Minas do Leão", "state":"RS", "location":{"lat": -30.134576, "lng": -52.042257}},
"city":{"name": "Butiá", "state":"RS", "location":{"lat": -30.117920, "lng": -51.960057}},
"city":{"name": "Vale Verde", "state":"RS", "location":{"lat": -29.786445, "lng": -52.185747}},
"city":{"name": "Passo do Sobrado", "state":"RS", "location":{"lat": -29.748041, "lng": -52.274758}},
"city":{"name": "Venâncio Aires", "state":"RS", "location":{"lat": -29.614306, "lng": -52.193159}},
"city":{"name": "São Pedro da Serra", "state":"RS", "location":{"lat": -29.419320, "lng": -51.513381}},
"city":{"name": "Harmonia", "state":"RS", "location":{"lat": -29.545556, "lng": -51.418502}},
"city":{"name": "Salvador do Sul", "state":"RS", "location":{"lat": -29.438561, "lng": -51.507699}},
"city":{"name": "Barão", "state":"RS", "location":{"lat": -29.372474, "lng": -51.494908}},
"city":{"name": "Tupandi", "state":"RS", "location":{"lat": -29.477185, "lng": -51.417358}},
"city":{"name": "Tavares", "state":"RS", "location":{"lat": -31.284266, "lng": -51.088040}},
"city":{"name": "Mostardas", "state":"RS", "location":{"lat": -31.105380, "lng": -50.916692}},
"city":{"name": "Barra do Ribeiro", "state":"RS", "location":{"lat": -30.293884, "lng": -51.301358}},
"city":{"name": "Guaíba", "state":"RS", "location":{"lat": -30.108592, "lng": -51.323314}},
"city":{"name": "Canoas", "state":"RS", "location":{"lat": -29.912758, "lng": -51.185681}},
"city":{"name": "Viamão", "state":"RS", "location":{"lat": -30.081899, "lng": -51.019435}},
"city":{"name": "Alvorada", "state":"RS", "location":{"lat": -29.991400, "lng": -51.080857}},
"city":{"name": "Cachoeirinha", "state":"RS", "location":{"lat": -29.947222, "lng": -51.101606}},
"city":{"name": "Gravataí", "state":"RS", "location":{"lat": -29.941319, "lng": -50.986891}},
"city":{"name": "Nova Santa Rita", "state":"RS", "location":{"lat": -29.852474, "lng": -51.283736}},
"city":{"name": "Capela de Santana", "state":"RS", "location":{"lat": -29.696088, "lng": -51.327998}},
"city":{"name": "Esteio", "state":"RS", "location":{"lat": -29.851963, "lng": -51.184065}},
"city":{"name": "Sapucaia do Sul", "state":"RS", "location":{"lat": -29.827575, "lng": -51.144975}},
"city":{"name": "São Leopoldo", "state":"RS", "location":{"lat": -29.754494, "lng": -51.149773}},
"city":{"name": "Portão", "state":"RS", "location":{"lat": -29.701533, "lng": -51.242895}},
"city":{"name": "Estância Velha", "state":"RS", "location":{"lat": -29.653540, "lng": -51.184339}},
"city":{"name": "Novo Hamburgo", "state":"RS", "location":{"lat": -29.687548, "lng": -51.132828}},
"city":{"name": "São Sebastião do Caí", "state":"RS", "location":{"lat": -29.588517, "lng": -51.374880}},
"city":{"name": "Bom Princípio", "state":"RS", "location":{"lat": -29.485634, "lng": -51.354763}},
"city":{"name": "São Vendelino", "state":"RS", "location":{"lat": -29.372873, "lng": -51.367515}},
"city":{"name": "Feliz", "state":"RS", "location":{"lat": -29.452703, "lng": -51.303186}},
"city":{"name": "Alto Feliz", "state":"RS", "location":{"lat": -29.391928, "lng": -51.312278}},
"city":{"name": "Vale Real", "state":"RS", "location":{"lat": -29.391944, "lng": -51.255859}},
"city":{"name": "Lindolfo Collor", "state":"RS", "location":{"lat": -29.585906, "lng": -51.214112}},
"city":{"name": "São José do Hortêncio", "state":"RS", "location":{"lat": -29.527962, "lng": -51.245048}},
"city":{"name": "Ivoti", "state":"RS", "location":{"lat": -29.599463, "lng": -51.153326}},
"city":{"name": "Presidente Lucena", "state":"RS", "location":{"lat": -29.517549, "lng": -51.179798}},
"city":{"name": "Linha Nova", "state":"RS", "location":{"lat": -29.467929, "lng": -51.200297}},
"city":{"name": "Picada Café", "state":"RS", "location":{"lat": -29.446421, "lng": -51.136725}},
"city":{"name": "Campo Bom", "state":"RS", "location":{"lat": -29.674694, "lng": -51.060601}},
"city":{"name": "Sapiranga", "state":"RS", "location":{"lat": -29.634885, "lng": -51.006446}},
"city":{"name": "Dois Irmãos", "state":"RS", "location":{"lat": -29.583560, "lng": -51.089776}},
"city":{"name": "Morro Reuter", "state":"RS", "location":{"lat": -29.537934, "lng": -51.081119}},
"city":{"name": "Nova Petrópolis", "state":"RS", "location":{"lat": -29.374112, "lng": -51.113552}},
"city":{"name": "Santa Maria do Herval", "state":"RS", "location":{"lat": -29.490163, "lng": -50.991917}},
"city":{"name": "Araricá", "state":"RS", "location":{"lat": -29.616832, "lng": -50.929128}},
"city":{"name": "Nova Hartz", "state":"RS", "location":{"lat": -29.580752, "lng": -50.905108}},
"city":{"name": "Gramado", "state":"RS", "location":{"lat": -29.373351, "lng": -50.876164}},
"city":{"name": "Palmares do Sul", "state":"RS", "location":{"lat": -30.253485, "lng": -50.510297}},
"city":{"name": "Capivari do Sul", "state":"RS", "location":{"lat": -30.138251, "lng": -50.515152}},
"city":{"name": "Glorinha", "state":"RS", "location":{"lat": -29.879798, "lng": -50.773363}},
"city":{"name": "Parobé", "state":"RS", "location":{"lat": -29.624257, "lng": -50.831180}},
"city":{"name": "Taquara", "state":"RS", "location":{"lat": -29.650471, "lng": -50.775278}},
"city":{"name": "Igrejinha", "state":"RS", "location":{"lat": -29.569318, "lng": -50.791894}},
"city":{"name": "Três Coroas", "state":"RS", "location":{"lat": -29.513719, "lng": -50.773869}},
"city":{"name": "Santo Antônio da Patrulha", "state":"RS", "location":{"lat": -29.826768, "lng": -50.517489}},
"city":{"name": "Tupanciretã", "state":"RS", "location":{"lat": -29.085775, "lng": -53.844469}},
"city":{"name": "Júlio de Castilhos", "state":"RS", "location":{"lat": -29.229855, "lng": -53.677168}},
"city":{"name": "Augusto Pestana", "state":"RS", "location":{"lat": -28.517249, "lng": -53.988292}},
"city":{"name": "Ijuí", "state":"RS", "location":{"lat": -28.388048, "lng": -53.919960}},
"city":{"name": "Cruz Alta", "state":"RS", "location":{"lat": -28.645001, "lng": -53.604831}},
"city":{"name": "Pejuçara", "state":"RS", "location":{"lat": -28.428256, "lng": -53.657854}},
"city":{"name": "Sete de Setembro", "state":"RS", "location":{"lat": -28.136169, "lng": -54.463682}},
"city":{"name": "Santo Ângelo", "state":"RS", "location":{"lat": -28.300128, "lng": -54.266781}},
"city":{"name": "Santa Rosa", "state":"RS", "location":{"lat": -27.870200, "lng": -54.479629}},
"city":{"name": "Giruá", "state":"RS", "location":{"lat": -28.029664, "lng": -54.351680}},
"city":{"name": "Catuípe", "state":"RS", "location":{"lat": -28.255356, "lng": -54.013215}},
"city":{"name": "Independência", "state":"RS", "location":{"lat": -27.835411, "lng": -54.188640}},
"city":{"name": "Inhacorá", "state":"RS", "location":{"lat": -27.875187, "lng": -54.014978}},
"city":{"name": "Alegria", "state":"RS", "location":{"lat": -27.834467, "lng": -54.055732}},
"city":{"name": "Tuparendi", "state":"RS", "location":{"lat": -27.759768, "lng": -54.481434}},
"city":{"name": "Tucunduva", "state":"RS", "location":{"lat": -27.657292, "lng": -54.443880}},
"city":{"name": "Novo Machado", "state":"RS", "location":{"lat": -27.576473, "lng": -54.503592}},
"city":{"name": "Horizontina", "state":"RS", "location":{"lat": -27.628238, "lng": -54.305336}},
"city":{"name": "Doutor Maurício Cardoso", "state":"RS", "location":{"lat": -27.510309, "lng": -54.357746}},
"city":{"name": "Três de Maio", "state":"RS", "location":{"lat": -27.780037, "lng": -54.235709}},
"city":{"name": "São José do Inhacorá", "state":"RS", "location":{"lat": -27.725055, "lng": -54.127462}},
"city":{"name": "Boa Vista do Buricá", "state":"RS", "location":{"lat": -27.669280, "lng": -54.108229}},
"city":{"name": "Nova Candelária", "state":"RS", "location":{"lat": -27.613677, "lng": -54.107401}},
"city":{"name": "Crissiumal", "state":"RS", "location":{"lat": -27.499890, "lng": -54.099372}},
"city":{"name": "Tiradentes do Sul", "state":"RS", "location":{"lat": -27.402229, "lng": -54.081367}},
"city":{"name": "Ajuricaba", "state":"RS", "location":{"lat": -28.234170, "lng": -53.775668}},
"city":{"name": "Chiapetta", "state":"RS", "location":{"lat": -27.923017, "lng": -53.941871}},
"city":{"name": "São Valério do Sul", "state":"RS", "location":{"lat": -27.790639, "lng": -53.936771}},
"city":{"name": "Santo Augusto", "state":"RS", "location":{"lat": -27.852577, "lng": -53.777605}},
"city":{"name": "Nova Ramada", "state":"RS", "location":{"lat": -28.066731, "lng": -53.699168}},
"city":{"name": "Panambi", "state":"RS", "location":{"lat": -28.283328, "lng": -53.502261}},
"city":{"name": "Condor", "state":"RS", "location":{"lat": -28.207533, "lng": -53.490545}},
"city":{"name": "São Martinho", "state":"RS", "location":{"lat": -27.711169, "lng": -53.969899}},
"city":{"name": "Sede Nova", "state":"RS", "location":{"lat": -27.636739, "lng": -53.949290}},
"city":{"name": "Humaitá", "state":"RS", "location":{"lat": -27.569065, "lng": -53.969525}},
"city":{"name": "Bom Progresso", "state":"RS", "location":{"lat": -27.539856, "lng": -53.871608}},
"city":{"name": "Campo Novo", "state":"RS", "location":{"lat": -27.679200, "lng": -53.805209}},
"city":{"name": "Braga", "state":"RS", "location":{"lat": -27.617348, "lng": -53.740514}},
"city":{"name": "Três Passos", "state":"RS", "location":{"lat": -27.455471, "lng": -53.929631}},
"city":{"name": "Esperança do Sul", "state":"RS", "location":{"lat": -27.360276, "lng": -53.989081}},
"city":{"name": "Derrubadas", "state":"RS", "location":{"lat": -27.264151, "lng": -53.864535}},
"city":{"name": "Tenente Portela", "state":"RS", "location":{"lat": -27.371058, "lng": -53.758484}},
"city":{"name": "Coronel Bicaco", "state":"RS", "location":{"lat": -27.719699, "lng": -53.702164}},
"city":{"name": "Redentora", "state":"RS", "location":{"lat": -27.663954, "lng": -53.640668}},
"city":{"name": "Dois Irmãos das Missões", "state":"RS", "location":{"lat": -27.662103, "lng": -53.530413}},
"city":{"name": "Erval Seco", "state":"RS", "location":{"lat": -27.544314, "lng": -53.500501}},
"city":{"name": "Miraguaí", "state":"RS", "location":{"lat": -27.496970, "lng": -53.689078}},
"city":{"name": "Vista Gaúcha", "state":"RS", "location":{"lat": -27.290217, "lng": -53.697382}},
"city":{"name": "Palmitinho", "state":"RS", "location":{"lat": -27.359574, "lng": -53.558029}},
"city":{"name": "Vista Alegre", "state":"RS", "location":{"lat": -27.368619, "lng": -53.491876}},
"city":{"name": "Pinhal Grande", "state":"RS", "location":{"lat": -29.345000, "lng": -53.320649}},
"city":{"name": "Arroio do Tigre", "state":"RS", "location":{"lat": -29.334829, "lng": -53.096627}},
"city":{"name": "Estrela Velha", "state":"RS", "location":{"lat": -29.171269, "lng": -53.163870}},
"city":{"name": "Segredo", "state":"RS", "location":{"lat": -29.352337, "lng": -52.976673}},
"city":{"name": "Tunas", "state":"RS", "location":{"lat": -29.103944, "lng": -52.953843}},
"city":{"name": "Salto do Jacuí", "state":"RS", "location":{"lat": -29.095065, "lng": -53.213326}},
"city":{"name": "Campos Borges", "state":"RS", "location":{"lat": -28.887148, "lng": -53.000812}},
"city":{"name": "Fortaleza dos Valos", "state":"RS", "location":{"lat": -28.798596, "lng": -53.224906}},
"city":{"name": "Santa Bárbara do Sul", "state":"RS", "location":{"lat": -28.365330, "lng": -53.251041}},
"city":{"name": "Quinze de Novembro", "state":"RS", "location":{"lat": -28.746552, "lng": -53.101096}},
"city":{"name": "Ibirubá", "state":"RS", "location":{"lat": -28.630161, "lng": -53.096124}},
"city":{"name": "Alto Alegre", "state":"RS", "location":{"lat": -28.776865, "lng": -52.989255}},
"city":{"name": "Gramado Xavier", "state":"RS", "location":{"lat": -29.270571, "lng": -52.579491}},
"city":{"name": "Barros Cassal", "state":"RS", "location":{"lat": -29.094686, "lng": -52.583571}},
"city":{"name": "Espumoso", "state":"RS", "location":{"lat": -28.728633, "lng": -52.846080}},
"city":{"name": "Selbach", "state":"RS", "location":{"lat": -28.629435, "lng": -52.949768}},
"city":{"name": "Tapera", "state":"RS", "location":{"lat": -28.627729, "lng": -52.861253}},
"city":{"name": "Mormaço", "state":"RS", "location":{"lat": -28.696814, "lng": -52.699916}},
"city":{"name": "Lagoa dos Três Cantos", "state":"RS", "location":{"lat": -28.567611, "lng": -52.861848}},
"city":{"name": "Não-Me-Toque", "state":"RS", "location":{"lat": -28.454776, "lng": -52.818156}},
"city":{"name": "Victor Graeff", "state":"RS", "location":{"lat": -28.563163, "lng": -52.749535}},
"city":{"name": "Santo Antônio do Planalto", "state":"RS", "location":{"lat": -28.403046, "lng": -52.699233}},
"city":{"name": "Soledade", "state":"RS", "location":{"lat": -28.830613, "lng": -52.513083}},
"city":{"name": "Ibirapuitã", "state":"RS", "location":{"lat": -28.624707, "lng": -52.515796}},
"city":{"name": "Ernestina", "state":"RS", "location":{"lat": -28.497674, "lng": -52.583566}},
"city":{"name": "Pinhal", "state":"RS", "location":{"lat": -27.508022, "lng": -53.208185}},
"city":{"name": "Rodeio Bonito", "state":"RS", "location":{"lat": -27.474203, "lng": -53.170583}},
"city":{"name": "Ametista do Sul", "state":"RS", "location":{"lat": -27.360656, "lng": -53.183005}},
"city":{"name": "Planalto", "state":"RS", "location":{"lat": -27.329695, "lng": -53.057530}},
"city":{"name": "Carazinho", "state":"RS", "location":{"lat": -28.295844, "lng": -52.793260}},
"city":{"name": "Coqueiros do Sul", "state":"RS", "location":{"lat": -28.119421, "lng": -52.784221}},
"city":{"name": "Sarandi", "state":"RS", "location":{"lat": -27.942000, "lng": -52.923085}},
"city":{"name": "Rondinha", "state":"RS", "location":{"lat": -27.831451, "lng": -52.908107}},
"city":{"name": "Pontão", "state":"RS", "location":{"lat": -28.058478, "lng": -52.679091}},
"city":{"name": "Engenho Velho", "state":"RS", "location":{"lat": -27.706026, "lng": -52.914540}},
"city":{"name": "Três Palmeiras", "state":"RS", "location":{"lat": -27.613889, "lng": -52.843718}},
"city":{"name": "Ronda Alta", "state":"RS", "location":{"lat": -27.775799, "lng": -52.805587}},
"city":{"name": "Entre Rios do Sul", "state":"RS", "location":{"lat": -27.529836, "lng": -52.734708}},
"city":{"name": "Trindade do Sul", "state":"RS", "location":{"lat": -27.523896, "lng": -52.895593}},
"city":{"name": "Gramado dos Loureiros", "state":"RS", "location":{"lat": -27.442895, "lng": -52.914861}},
"city":{"name": "Rio dos Índios", "state":"RS", "location":{"lat": -27.297280, "lng": -52.841749}},
"city":{"name": "Nonoai", "state":"RS", "location":{"lat": -27.368918, "lng": -52.775564}},
"city":{"name": "Campinas do Sul", "state":"RS", "location":{"lat": -27.717426, "lng": -52.624808}},
"city":{"name": "Jacutinga", "state":"RS", "location":{"lat": -27.729135, "lng": -52.537240}},
"city":{"name": "Ponte Preta", "state":"RS", "location":{"lat": -27.658692, "lng": -52.484817}},
"city":{"name": "São Valentim", "state":"RS", "location":{"lat": -27.558284, "lng": -52.523714}},
"city":{"name": "Faxinalzinho", "state":"RS", "location":{"lat": -27.423770, "lng": -52.678917}},
"city":{"name": "Benjamin Constant do Sul", "state":"RS", "location":{"lat": -27.508565, "lng": -52.599504}},
"city":{"name": "Erval Grande", "state":"RS", "location":{"lat": -27.392599, "lng": -52.574036}},
"city":{"name": "Itatiba do Sul", "state":"RS", "location":{"lat": -27.384631, "lng": -52.453776}},
"city":{"name": "Barra do Guarita", "state":"RS", "location":{"lat": -27.192672, "lng": -53.710867}},
"city":{"name": "Itapiranga", "state":"SC", "location":{"lat": -27.165856, "lng": -53.716603}},
"city":{"name": "Pinheirinho do Vale", "state":"RS", "location":{"lat": -27.210886, "lng": -53.608017}},
"city":{"name": "São João do Oeste", "state":"SC", "location":{"lat": -27.098353, "lng": -53.597657}},
"city":{"name": "Tunápolis", "state":"SC", "location":{"lat": -26.968103, "lng": -53.641725}},
"city":{"name": "Santa Helena", "state":"SC", "location":{"lat": -26.936966, "lng": -53.621439}},
"city":{"name": "Bandeirante", "state":"SC", "location":{"lat": -26.770499, "lng": -53.641326}},
"city":{"name": "Iporã do Oeste", "state":"SC", "location":{"lat": -26.985396, "lng": -53.535483}},
"city":{"name": "Belmonte", "state":"SC", "location":{"lat": -26.842994, "lng": -53.575810}},
"city":{"name": "Descanso", "state":"SC", "location":{"lat": -26.826971, "lng": -53.503395}},
"city":{"name": "Paraíso", "state":"SC", "location":{"lat": -26.620024, "lng": -53.671595}},
"city":{"name": "São Miguel do Oeste", "state":"SC", "location":{"lat": -26.724224, "lng": -53.516259}},
"city":{"name": "Guaraciaba", "state":"SC", "location":{"lat": -26.604199, "lng": -53.524317}},
"city":{"name": "Dionísio Cerqueira", "state":"SC", "location":{"lat": -26.264784, "lng": -53.635149}},
"city":{"name": "Barracão", "state":"PR", "location":{"lat": -26.250230, "lng": -53.632385}},
"city":{"name": "Princesa", "state":"SC", "location":{"lat": -26.444120, "lng": -53.599427}},
"city":{"name": "São José do Cedro", "state":"SC", "location":{"lat": -26.456135, "lng": -53.495456}},
"city":{"name": "Guarujá do Sul", "state":"SC", "location":{"lat": -26.385813, "lng": -53.529575}},
"city":{"name": "Santa Terezinha de Itaipu", "state":"PR", "location":{"lat": -25.434417, "lng": -54.400725}},
"city":{"name": "São Miguel do Iguaçu", "state":"PR", "location":{"lat": -25.349171, "lng": -54.240498}},
"city":{"name": "Medianeira", "state":"PR", "location":{"lat": -25.297665, "lng": -54.094308}},
"city":{"name": "Serranópolis do Iguaçu", "state":"PR", "location":{"lat": -25.379915, "lng": -54.051822}},
"city":{"name": "Pranchita", "state":"PR", "location":{"lat": -26.021968, "lng": -53.741112}},
"city":{"name": "Pérola d'Oeste", "state":"PR", "location":{"lat": -25.820958, "lng": -53.744742}},
"city":{"name": "Planalto", "state":"PR", "location":{"lat": -25.721135, "lng": -53.764234}},
"city":{"name": "Santo Antônio do Sudoeste", "state":"PR", "location":{"lat": -26.073708, "lng": -53.725100}},
"city":{"name": "Bom Jesus do Sul", "state":"PR", "location":{"lat": -26.195802, "lng": -53.595493}},
"city":{"name": "Pinhal de São Bento", "state":"PR", "location":{"lat": -26.032422, "lng": -53.481998}},
"city":{"name": "Bela Vista da Caroba", "state":"PR", "location":{"lat": -25.884179, "lng": -53.672505}},
"city":{"name": "Santa Izabel do Oeste", "state":"PR", "location":{"lat": -25.821652, "lng": -53.480146}},
"city":{"name": "Realeza", "state":"PR", "location":{"lat": -25.771093, "lng": -53.526030}},
"city":{"name": "Capanema", "state":"PR", "location":{"lat": -25.669099, "lng": -53.805508}},
"city":{"name": "Matelândia", "state":"PR", "location":{"lat": -25.249571, "lng": -53.993492}},
"city":{"name": "Capitão Leônidas Marques", "state":"PR", "location":{"lat": -25.481645, "lng": -53.611238}},
"city":{"name": "Santa Lúcia", "state":"PR", "location":{"lat": -25.410355, "lng": -53.563796}},
"city":{"name": "Lindoeste", "state":"PR", "location":{"lat": -25.259616, "lng": -53.573298}},
"city":{"name": "Vicente Dutra", "state":"RS", "location":{"lat": -27.160749, "lng": -53.402211}},
"city":{"name": "Mondaí", "state":"SC", "location":{"lat": -27.100785, "lng": -53.403177}},
"city":{"name": "Iraí", "state":"RS", "location":{"lat": -27.195070, "lng": -53.254322}},
"city":{"name": "Riqueza", "state":"SC", "location":{"lat": -27.065325, "lng": -53.326452}},
"city":{"name": "Caibi", "state":"SC", "location":{"lat": -27.074102, "lng": -53.245751}},
"city":{"name": "Flor do Sertão", "state":"SC", "location":{"lat": -26.781143, "lng": -53.350522}},
"city":{"name": "Iraceminha", "state":"SC", "location":{"lat": -26.821536, "lng": -53.276682}},
"city":{"name": "Palmitos", "state":"SC", "location":{"lat": -27.070219, "lng": -53.158612}},
"city":{"name": "Alpestre", "state":"RS", "location":{"lat": -27.250159, "lng": -53.034127}},
"city":{"name": "São Carlos", "state":"SC", "location":{"lat": -27.079757, "lng": -53.003704}},
"city":{"name": "Águas de Chapecó", "state":"SC", "location":{"lat": -27.075424, "lng": -52.980844}},
"city":{"name": "Cunha Porã", "state":"SC", "location":{"lat": -26.895019, "lng": -53.166185}},
"city":{"name": "Cunhataí", "state":"SC", "location":{"lat": -26.970924, "lng": -53.089474}},
"city":{"name": "Maravilha", "state":"SC", "location":{"lat": -26.766529, "lng": -53.173699}},
"city":{"name": "Saudades", "state":"SC", "location":{"lat": -26.931677, "lng": -53.002130}},
"city":{"name": "Modelo", "state":"SC", "location":{"lat": -26.772924, "lng": -53.039956}},
"city":{"name": "Pinhalzinho", "state":"SC", "location":{"lat": -26.849546, "lng": -52.991268}},
"city":{"name": "Barra Bonita", "state":"SC", "location":{"lat": -26.654000, "lng": -53.440000}},
"city":{"name": "Romelândia", "state":"SC", "location":{"lat": -26.680888, "lng": -53.317193}},
"city":{"name": "São Miguel da Boa Vista", "state":"SC", "location":{"lat": -26.686961, "lng": -53.251107}},
"city":{"name": "Anchieta", "state":"SC", "location":{"lat": -26.538216, "lng": -53.331908}},
"city":{"name": "São Bernardino", "state":"SC", "location":{"lat": -26.473926, "lng": -52.968669}},
"city":{"name": "Caxambu do Sul", "state":"SC", "location":{"lat": -27.162401, "lng": -52.880718}},
"city":{"name": "Planalto Alegre", "state":"SC", "location":{"lat": -27.070423, "lng": -52.866990}},
"city":{"name": "Guatambú", "state":"SC", "location":{"lat": -27.134102, "lng": -52.788650}},
"city":{"name": "Nova Erechim", "state":"SC", "location":{"lat": -26.898159, "lng": -52.906569}},
"city":{"name": "Águas Frias", "state":"SC", "location":{"lat": -26.879377, "lng": -52.856773}},
"city":{"name": "União do Oeste", "state":"SC", "location":{"lat": -26.762040, "lng": -52.854123}},
"city":{"name": "Nova Itaberaba", "state":"SC", "location":{"lat": -26.942805, "lng": -52.814076}},
"city":{"name": "Coronel Freitas", "state":"SC", "location":{"lat": -26.905713, "lng": -52.701122}},
"city":{"name": "Chapecó", "state":"SC", "location":{"lat": -27.100448, "lng": -52.615190}},
"city":{"name": "Paial", "state":"SC", "location":{"lat": -27.254105, "lng": -52.497517}},
"city":{"name": "Arvoredo", "state":"SC", "location":{"lat": -27.074816, "lng": -52.454260}},
"city":{"name": "Cordilheira Alta", "state":"SC", "location":{"lat": -26.984403, "lng": -52.605582}},
"city":{"name": "Marema", "state":"SC", "location":{"lat": -26.802361, "lng": -52.626445}},
"city":{"name": "Lajeado Grande", "state":"SC", "location":{"lat": -26.857614, "lng": -52.564782}},
"city":{"name": "Xaxim", "state":"SC", "location":{"lat": -26.959643, "lng": -52.537446}},
"city":{"name": "Irati", "state":"SC", "location":{"lat": -26.653862, "lng": -52.895513}},
"city":{"name": "Jardinópolis", "state":"SC", "location":{"lat": -26.719136, "lng": -52.862524}},
"city":{"name": "Formosa do Sul", "state":"SC", "location":{"lat": -26.645272, "lng": -52.794636}},
"city":{"name": "Quilombo", "state":"SC", "location":{"lat": -26.726432, "lng": -52.723960}},
"city":{"name": "Novo Horizonte", "state":"SC", "location":{"lat": -26.444218, "lng": -52.828104}},
"city":{"name": "São Lourenço do Oeste", "state":"SC", "location":{"lat": -26.355660, "lng": -52.849837}},
"city":{"name": "Jupiá", "state":"SC", "location":{"lat": -26.395038, "lng": -52.729766}},
"city":{"name": "Vitorino", "state":"PR", "location":{"lat": -26.268282, "lng": -52.784266}},
"city":{"name": "Santiago do Sul", "state":"SC", "location":{"lat": -26.638784, "lng": -52.679852}},
"city":{"name": "Coronel Martins", "state":"SC", "location":{"lat": -26.511043, "lng": -52.669361}},
"city":{"name": "Entre Rios", "state":"SC", "location":{"lat": -26.722474, "lng": -52.558504}},
"city":{"name": "Ipuaçu", "state":"SC", "location":{"lat": -26.632025, "lng": -52.456633}},
"city":{"name": "São Domingos", "state":"SC", "location":{"lat": -26.554811, "lng": -52.531333}},
"city":{"name": "Galvão", "state":"SC", "location":{"lat": -26.454934, "lng": -52.687528}},
"city":{"name": "Pato Branco", "state":"PR", "location":{"lat": -26.229237, "lng": -52.670630}},
"city":{"name": "Mariópolis", "state":"PR", "location":{"lat": -26.351072, "lng": -52.549736}},
"city":{"name": "Salgado Filho", "state":"PR", "location":{"lat": -26.177664, "lng": -53.363116}},
"city":{"name": "Manfrinópolis", "state":"PR", "location":{"lat": -26.147968, "lng": -53.315257}},
"city":{"name": "Ampére", "state":"PR", "location":{"lat": -25.916791, "lng": -53.468640}},
"city":{"name": "Nova Esperança do Sudoeste", "state":"PR", "location":{"lat": -25.906070, "lng": -53.265240}},
"city":{"name": "Salto do Lontra", "state":"PR", "location":{"lat": -25.781257, "lng": -53.313528}},
"city":{"name": "Marmeleiro", "state":"PR", "location":{"lat": -26.147200, "lng": -53.026741}},
"city":{"name": "Renascença", "state":"PR", "location":{"lat": -26.158837, "lng": -52.970349}},
"city":{"name": "Francisco Beltrão", "state":"PR", "location":{"lat": -26.081677, "lng": -53.053466}},
"city":{"name": "Enéas Marques", "state":"PR", "location":{"lat": -25.944525, "lng": -53.165860}},
"city":{"name": "Irineópolis", "state":"SC", "location":{"lat": -26.242006, "lng": -50.795687}},
"city":{"name": "Bela Vista do Toldo", "state":"SC", "location":{"lat": -26.274625, "lng": -50.466354}},
"city":{"name": "Cruz Machado", "state":"PR", "location":{"lat": -26.016640, "lng": -51.342965}},
"city":{"name": "Porto Vitória", "state":"PR", "location":{"lat": -26.167404, "lng": -51.230976}},
"city":{"name": "Paula Freitas", "state":"PR", "location":{"lat": -26.210513, "lng": -50.930983}},
"city":{"name": "Inácio Martins", "state":"PR", "location":{"lat": -25.570395, "lng": -51.076925}},
"city":{"name": "Prudentópolis", "state":"PR", "location":{"lat": -25.211083, "lng": -50.975396}},
"city":{"name": "Paulo Frontin", "state":"PR", "location":{"lat": -26.046565, "lng": -50.830423}},
"city":{"name": "Mallet", "state":"PR", "location":{"lat": -25.880588, "lng": -50.817346}},
"city":{"name": "Rio Azul", "state":"PR", "location":{"lat": -25.730580, "lng": -50.798543}},
"city":{"name": "Canoinhas", "state":"SC", "location":{"lat": -26.176591, "lng": -50.395001}},
"city":{"name": "São Mateus do Sul", "state":"PR", "location":{"lat": -25.867655, "lng": -50.383985}},
"city":{"name": "Rebouças", "state":"PR", "location":{"lat": -25.623198, "lng": -50.687727}},
"city":{"name": "Irati", "state":"PR", "location":{"lat": -25.469663, "lng": -50.649287}},
"city":{"name": "Guamiranga", "state":"PR", "location":{"lat": -25.191167, "lng": -50.802109}},
"city":{"name": "Imbituva", "state":"PR", "location":{"lat": -25.228538, "lng": -50.598856}},
"city":{"name": "Fernandes Pinheiro", "state":"PR", "location":{"lat": -25.410742, "lng": -50.545601}},
"city":{"name": "Teixeira Soares", "state":"PR", "location":{"lat": -25.370100, "lng": -50.457072}},
"city":{"name": "Porto Murtinho", "state":"MS", "location":{"lat": -21.698078, "lng": -57.883586}},
"city":{"name": "Caracol", "state":"MS", "location":{"lat": -22.011017, "lng": -57.027672}},
"city":{"name": "Paranhos", "state":"MS", "location":{"lat": -23.891067, "lng": -55.429018}},
"city":{"name": "Coronel Sapucaia", "state":"MS", "location":{"lat": -23.272407, "lng": -55.527811}},
"city":{"name": "Amambaí", "state":"MS", "location":{"lat": -23.105760, "lng": -55.225327}},
"city":{"name": "Sete Quedas", "state":"MS", "location":{"lat": -23.970508, "lng": -55.039840}},
"city":{"name": "Tacuru", "state":"MS", "location":{"lat": -23.635954, "lng": -55.014137}},
"city":{"name": "Iguatemi", "state":"MS", "location":{"lat": -23.673555, "lng": -54.563731}},
"city":{"name": "Bela Vista", "state":"MS", "location":{"lat": -22.107327, "lng": -56.526288}},
"city":{"name": "Aral Moreira", "state":"MS", "location":{"lat": -22.938467, "lng": -55.633451}},
"city":{"name": "Antônio João", "state":"MS", "location":{"lat": -22.192701, "lng": -55.951681}},
"city":{"name": "Ponta Porã", "state":"MS", "location":{"lat": -22.529617, "lng": -55.720326}},
"city":{"name": "Bonito", "state":"MS", "location":{"lat": -21.126096, "lng": -56.483565}},
"city":{"name": "Jardim", "state":"MS", "location":{"lat": -21.479941, "lng": -56.148902}},
"city":{"name": "Guia Lopes da Laguna", "state":"MS", "location":{"lat": -21.458318, "lng": -56.111711}},
"city":{"name": "Pouso Novo", "state":"RS", "location":{"lat": -29.173793, "lng": -52.213588}},
"city":{"name": "Fontoura Xavier", "state":"RS", "location":{"lat": -28.981655, "lng": -52.344455}},
"city":{"name": "São José do Herval", "state":"RS", "location":{"lat": -29.052035, "lng": -52.294991}},
"city":{"name": "Arvorezinha", "state":"RS", "location":{"lat": -28.873690, "lng": -52.178080}},
"city":{"name": "Marques de Souza", "state":"RS", "location":{"lat": -29.331113, "lng": -52.097268}},
"city":{"name": "Travesseiro", "state":"RS", "location":{"lat": -29.297662, "lng": -52.053228}},
"city":{"name": "Relvado", "state":"RS", "location":{"lat": -29.116376, "lng": -52.077831}},
"city":{"name": "Capitão", "state":"RS", "location":{"lat": -29.267386, "lng": -51.985280}},
"city":{"name": "Nova Bréscia", "state":"RS", "location":{"lat": -29.218186, "lng": -52.031862}},
"city":{"name": "Putinga", "state":"RS", "location":{"lat": -29.004494, "lng": -52.156904}},
"city":{"name": "Ilópolis", "state":"RS", "location":{"lat": -28.928250, "lng": -52.125816}},
"city":{"name": "Doutor Ricardo", "state":"RS", "location":{"lat": -29.083957, "lng": -51.997155}},
"city":{"name": "Anta Gorda", "state":"RS", "location":{"lat": -28.969772, "lng": -52.010191}},
"city":{"name": "Itapuca", "state":"RS", "location":{"lat": -28.776844, "lng": -52.169283}},
"city":{"name": "Camargo", "state":"RS", "location":{"lat": -28.587979, "lng": -52.200263}},
"city":{"name": "Marau", "state":"RS", "location":{"lat": -28.449754, "lng": -52.198625}},
"city":{"name": "Nova Alvorada", "state":"RS", "location":{"lat": -28.682231, "lng": -52.163080}},
"city":{"name": "Montauri", "state":"RS", "location":{"lat": -28.646161, "lng": -52.076728}},
"city":{"name": "União da Serra", "state":"RS", "location":{"lat": -28.783285, "lng": -52.023783}},
"city":{"name": "Serafina Corrêa", "state":"RS", "location":{"lat": -28.712621, "lng": -51.935250}},
"city":{"name": "Vila Maria", "state":"RS", "location":{"lat": -28.535853, "lng": -52.148648}},
"city":{"name": "Casca", "state":"RS", "location":{"lat": -28.560516, "lng": -51.981452}},
"city":{"name": "Santo Antônio do Palma", "state":"RS", "location":{"lat": -28.495554, "lng": -52.026701}},
"city":{"name": "Gentil", "state":"RS", "location":{"lat": -28.431641, "lng": -52.033695}},
"city":{"name": "Roca Sales", "state":"RS", "location":{"lat": -29.288398, "lng": -51.865840}},
"city":{"name": "Encantado", "state":"RS", "location":{"lat": -29.235141, "lng": -51.870282}},
"city":{"name": "Imigrante", "state":"RS", "location":{"lat": -29.350776, "lng": -51.774752}},
"city":{"name": "Muçum", "state":"RS", "location":{"lat": -29.163002, "lng": -51.871367}},
"city":{"name": "Boa Vista do Sul", "state":"RS", "location":{"lat": -29.354406, "lng": -51.668725}},
"city":{"name": "Santa Tereza", "state":"RS", "location":{"lat": -29.165467, "lng": -51.735066}},
"city":{"name": "Vespasiano Correa", "state":"RS", "location":{"lat": -29.065506, "lng": -51.862495}},
"city":{"name": "Dois Lajeados", "state":"RS", "location":{"lat": -28.983006, "lng": -51.839584}},
"city":{"name": "Guaporé", "state":"RS", "location":{"lat": -28.839917, "lng": -51.889542}},
"city":{"name": "São Valentim do Sul", "state":"RS", "location":{"lat": -29.045056, "lng": -51.768356}},
"city":{"name": "Cotiporã", "state":"RS", "location":{"lat": -28.989106, "lng": -51.697067}},
"city":{"name": "Fagundes Varela", "state":"RS", "location":{"lat": -28.879386, "lng": -51.701425}},
"city":{"name": "Garibaldi", "state":"RS", "location":{"lat": -29.258979, "lng": -51.535179}},
"city":{"name": "Monte Belo do Sul", "state":"RS", "location":{"lat": -29.160740, "lng": -51.633263}},
"city":{"name": "Bento Gonçalves", "state":"RS", "location":{"lat": -29.166212, "lng": -51.516476}},
"city":{"name": "Carlos Barbosa", "state":"RS", "location":{"lat": -29.296949, "lng": -51.502847}},
"city":{"name": "Veranópolis", "state":"RS", "location":{"lat": -28.931197, "lng": -51.551614}},
"city":{"name": "Vila Flores", "state":"RS", "location":{"lat": -28.859825, "lng": -51.550371}},
"city":{"name": "Nova Roma do Sul", "state":"RS", "location":{"lat": -28.988173, "lng": -51.409511}},
"city":{"name": "Vista Alegre do Prata", "state":"RS", "location":{"lat": -28.805218, "lng": -51.794650}},
"city":{"name": "Paraí", "state":"RS", "location":{"lat": -28.596384, "lng": -51.789602}},
"city":{"name": "Nova Bassano", "state":"RS", "location":{"lat": -28.729088, "lng": -51.707194}},
"city":{"name": "Nova Araçá", "state":"RS", "location":{"lat": -28.653741, "lng": -51.745802}},
"city":{"name": "São Domingos do Sul", "state":"RS", "location":{"lat": -28.531151, "lng": -51.885980}},
"city":{"name": "Vanini", "state":"RS", "location":{"lat": -28.475833, "lng": -51.844723}},
"city":{"name": "David Canabarro", "state":"RS", "location":{"lat": -28.384907, "lng": -51.848205}},
"city":{"name": "Ciríaco", "state":"RS", "location":{"lat": -28.341913, "lng": -51.874143}},
"city":{"name": "Guabiju", "state":"RS", "location":{"lat": -28.542083, "lng": -51.694830}},
"city":{"name": "São Jorge", "state":"RS", "location":{"lat": -28.498445, "lng": -51.706422}},
"city":{"name": "Muliterno", "state":"RS", "location":{"lat": -28.325299, "lng": -51.769675}},
"city":{"name": "Passo Fundo", "state":"RS", "location":{"lat": -28.257564, "lng": -52.409112}},
"city":{"name": "Coxilha", "state":"RS", "location":{"lat": -28.127970, "lng": -52.302343}},
"city":{"name": "Mato Castelhano", "state":"RS", "location":{"lat": -28.280019, "lng": -52.193231}},
"city":{"name": "Ipiranga do Sul", "state":"RS", "location":{"lat": -27.940366, "lng": -52.427124}},
"city":{"name": "Erebango", "state":"RS", "location":{"lat": -27.854386, "lng": -52.300486}},
"city":{"name": "Sertão", "state":"RS", "location":{"lat": -27.979782, "lng": -52.258780}},
"city":{"name": "Estação", "state":"RS", "location":{"lat": -27.913468, "lng": -52.263536}},
"city":{"name": "Getúlio Vargas", "state":"RS", "location":{"lat": -27.891093, "lng": -52.229357}},
"city":{"name": "Vila Lângaro", "state":"RS", "location":{"lat": -28.106184, "lng": -52.143795}},
"city":{"name": "Água Santa", "state":"RS", "location":{"lat": -28.167228, "lng": -52.031004}},
"city":{"name": "Tapejara", "state":"RS", "location":{"lat": -28.065237, "lng": -52.009665}},
"city":{"name": "Floriano Peixoto", "state":"RS", "location":{"lat": -27.861391, "lng": -52.083775}},
"city":{"name": "Charrua", "state":"RS", "location":{"lat": -27.949268, "lng": -52.015005}},
"city":{"name": "Barão de Cotegipe", "state":"RS", "location":{"lat": -27.620785, "lng": -52.379820}},
"city":{"name": "Erechim", "state":"RS", "location":{"lat": -27.636380, "lng": -52.269690}},
"city":{"name": "Barra do Rio Azul", "state":"RS", "location":{"lat": -27.406855, "lng": -52.408375}},
"city":{"name": "Itá", "state":"SC", "location":{"lat": -27.290666, "lng": -52.321187}},
"city":{"name": "Aratiba", "state":"RS", "location":{"lat": -27.397787, "lng": -52.297461}},
"city":{"name": "Áurea", "state":"RS", "location":{"lat": -27.693586, "lng": -52.050506}},
"city":{"name": "Gaurama", "state":"RS", "location":{"lat": -27.585587, "lng": -52.091529}},
"city":{"name": "Nova Pádua", "state":"RS", "location":{"lat": -29.027509, "lng": -51.309752}},
"city":{"name": "Antônio Prado", "state":"RS", "location":{"lat": -28.856544, "lng": -51.288263}},
"city":{"name": "Flores da Cunha", "state":"RS", "location":{"lat": -29.026147, "lng": -51.187457}},
"city":{"name": "São Marcos", "state":"RS", "location":{"lat": -28.967659, "lng": -51.069559}},
"city":{"name": "Ipê", "state":"RS", "location":{"lat": -28.817098, "lng": -51.285931}},
"city":{"name": "Muitos Capões", "state":"RS", "location":{"lat": -28.313183, "lng": -51.183593}},
"city":{"name": "Campestre da Serra", "state":"RS", "location":{"lat": -28.792585, "lng": -51.094148}},
"city":{"name": "Vacaria", "state":"RS", "location":{"lat": -28.507868, "lng": -50.941791}},
"city":{"name": "Canela", "state":"RS", "location":{"lat": -29.355993, "lng": -50.811921}},
"city":{"name": "Jaquirana", "state":"RS", "location":{"lat": -28.881098, "lng": -50.363681}},
"city":{"name": "Monte Alegre dos Campos", "state":"RS", "location":{"lat": -28.680495, "lng": -50.783385}},
"city":{"name": "Bom Jesus", "state":"RS", "location":{"lat": -28.669703, "lng": -50.429453}},
"city":{"name": "Esmeralda", "state":"RS", "location":{"lat": -28.051762, "lng": -51.193270}},
"city":{"name": "Cerro Negro", "state":"SC", "location":{"lat": -27.794205, "lng": -50.867264}},
"city":{"name": "Celso Ramos", "state":"SC", "location":{"lat": -27.632708, "lng": -51.335003}},
"city":{"name": "Anita Garibaldi", "state":"SC", "location":{"lat": -27.689743, "lng": -51.127143}},
"city":{"name": "Campos Novos", "state":"SC", "location":{"lat": -27.400184, "lng": -51.227589}},
"city":{"name": "Abdon Batista", "state":"SC", "location":{"lat": -27.612628, "lng": -51.023275}},
"city":{"name": "Vargem", "state":"SC", "location":{"lat": -27.486714, "lng": -50.972355}},
"city":{"name": "Brunópolis", "state":"SC", "location":{"lat": -27.305781, "lng": -50.868370}},
"city":{"name": "Campo Belo do Sul", "state":"SC", "location":{"lat": -27.897540, "lng": -50.759550}},
"city":{"name": "Capão Alto", "state":"SC", "location":{"lat": -27.938936, "lng": -50.509788}},
"city":{"name": "São José do Cerrito", "state":"SC", "location":{"lat": -27.660189, "lng": -50.573305}},
"city":{"name": "Correia Pinto", "state":"SC", "location":{"lat": -27.587688, "lng": -50.361448}},
"city":{"name": "Curitibanos", "state":"SC", "location":{"lat": -27.282373, "lng": -50.581638}},
"city":{"name": "Ponte Alta", "state":"SC", "location":{"lat": -27.483497, "lng": -50.376404}},
"city":{"name": "São Cristovão do Sul", "state":"SC", "location":{"lat": -27.266627, "lng": -50.438807}},
"city":{"name": "Seara", "state":"SC", "location":{"lat": -27.156432, "lng": -52.299045}},
"city":{"name": "Xavantina", "state":"SC", "location":{"lat": -27.066700, "lng": -52.342994}},
"city":{"name": "Xanxerê", "state":"SC", "location":{"lat": -26.874694, "lng": -52.403579}},
"city":{"name": "Faxinal dos Guedes", "state":"SC", "location":{"lat": -26.845104, "lng": -52.259624}},
"city":{"name": "Arabutã", "state":"SC", "location":{"lat": -27.158691, "lng": -52.142263}},
"city":{"name": "Ipumirim", "state":"SC", "location":{"lat": -27.077215, "lng": -52.128873}},
"city":{"name": "Lindóia do Sul", "state":"SC", "location":{"lat": -27.054472, "lng": -52.068955}},
"city":{"name": "Concórdia", "state":"SC", "location":{"lat": -27.233461, "lng": -52.025962}},
"city":{"name": "Vargeão", "state":"SC", "location":{"lat": -26.862088, "lng": -52.154907}},
"city":{"name": "Passos Maia", "state":"SC", "location":{"lat": -26.782945, "lng": -52.056768}},
"city":{"name": "Ponte Serrada", "state":"SC", "location":{"lat": -26.873278, "lng": -52.011250}},
"city":{"name": "Bom Jesus", "state":"SC", "location":{"lat": -26.732595, "lng": -52.391900}},
"city":{"name": "Ouro Verde", "state":"SC", "location":{"lat": -26.692027, "lng": -52.310845}},
"city":{"name": "Abelardo Luz", "state":"SC", "location":{"lat": -26.571585, "lng": -52.322881}},
"city":{"name": "Clevelândia", "state":"PR", "location":{"lat": -26.404288, "lng": -52.350794}},
"city":{"name": "Palmas", "state":"PR", "location":{"lat": -26.483868, "lng": -51.988812}},
"city":{"name": "Coronel Domingos Soares", "state":"PR", "location":{"lat": -26.227684, "lng": -52.035650}},
"city":{"name": "Presidente Castello Branco", "state":"SC", "location":{"lat": -27.224778, "lng": -51.803342}},
"city":{"name": "Irani", "state":"SC", "location":{"lat": -27.028684, "lng": -51.901204}},
"city":{"name": "Jaborá", "state":"SC", "location":{"lat": -27.178233, "lng": -51.727899}},
"city":{"name": "Vargem Bonita", "state":"SC", "location":{"lat": -27.005456, "lng": -51.740238}},
"city":{"name": "Catanduvas", "state":"SC", "location":{"lat": -27.068972, "lng": -51.660158}},
"city":{"name": "Lacerdópolis", "state":"SC", "location":{"lat": -27.257941, "lng": -51.557660}},
"city":{"name": "Joaçaba", "state":"SC", "location":{"lat": -27.172105, "lng": -51.510788}},
"city":{"name": "Herval d'Oeste", "state":"SC", "location":{"lat": -27.190300, "lng": -51.491728}},
"city":{"name": "Luzerna", "state":"SC", "location":{"lat": -27.130363, "lng": -51.468221}},
"city":{"name": "Treze Tílias", "state":"SC", "location":{"lat": -27.002604, "lng": -51.408444}},
"city":{"name": "Água Doce", "state":"SC", "location":{"lat": -26.998452, "lng": -51.552812}},
"city":{"name": "Salto Veloso", "state":"SC", "location":{"lat": -26.902991, "lng": -51.404337}},
"city":{"name": "Honório Serpa", "state":"PR", "location":{"lat": -26.139021, "lng": -52.384839}},
"city":{"name": "Mangueirinha", "state":"PR", "location":{"lat": -25.942102, "lng": -52.174275}},
"city":{"name": "Reserva do Iguaçu", "state":"PR", "location":{"lat": -25.831905, "lng": -52.027215}},
"city":{"name": "Porto Barreiro", "state":"PR", "location":{"lat": -25.547696, "lng": -52.406744}},
"city":{"name": "Laranjeiras do Sul", "state":"PR", "location":{"lat": -25.407672, "lng": -52.410854}},
"city":{"name": "Virmond", "state":"PR", "location":{"lat": -25.382911, "lng": -52.198715}},
"city":{"name": "Foz do Jordão", "state":"PR", "location":{"lat": -25.737094, "lng": -52.118829}},
"city":{"name": "Candói", "state":"PR", "location":{"lat": -25.575847, "lng": -52.040876}},
"city":{"name": "Cantagalo", "state":"PR", "location":{"lat": -25.373359, "lng": -52.119818}},
"city":{"name": "Goioxim", "state":"PR", "location":{"lat": -25.192652, "lng": -51.991091}},
"city":{"name": "Pinhão", "state":"PR", "location":{"lat": -25.694388, "lng": -51.653595}},
"city":{"name": "Bituruna", "state":"PR", "location":{"lat": -26.160746, "lng": -51.551792}},
"city":{"name": "Guarapuava", "state":"PR", "location":{"lat": -25.390237, "lng": -51.462317}},
"city":{"name": "Ibicaré", "state":"SC", "location":{"lat": -27.088141, "lng": -51.368101}},
"city":{"name": "Ibiam", "state":"SC", "location":{"lat": -27.184658, "lng": -51.235154}},
"city":{"name": "Tangará", "state":"SC", "location":{"lat": -27.099576, "lng": -51.247253}},
"city":{"name": "Pinheiro Preto", "state":"SC", "location":{"lat": -27.048318, "lng": -51.224249}},
"city":{"name": "Iomerê", "state":"SC", "location":{"lat": -27.001920, "lng": -51.244227}},
"city":{"name": "Videira", "state":"SC", "location":{"lat": -27.008624, "lng": -51.154274}},
"city":{"name": "Arroio Trinta", "state":"SC", "location":{"lat": -26.925655, "lng": -51.340719}},
"city":{"name": "Macieira", "state":"SC", "location":{"lat": -26.855232, "lng": -51.370510}},
"city":{"name": "Monte Carlo", "state":"SC", "location":{"lat": -27.223916, "lng": -50.980785}},
"city":{"name": "Fraiburgo", "state":"SC", "location":{"lat": -27.023288, "lng": -50.919978}},
"city":{"name": "Rio das Antas", "state":"SC", "location":{"lat": -26.894615, "lng": -51.067414}},
"city":{"name": "Pérola", "state":"PR", "location":{"lat": -23.803898, "lng": -53.683353}},
"city":{"name": "Xambrê", "state":"PR", "location":{"lat": -23.736409, "lng": -53.488430}},
"city":{"name": "Vila Alta", "state":"PR", "location":{"lat": -23.508137, "lng": -53.728537}},
"city":{"name": "Icaraíma", "state":"PR", "location":{"lat": -23.394354, "lng": -53.614979}},
"city":{"name": "Querência do Norte", "state":"PR", "location":{"lat": -23.083758, "lng": -53.483022}},
"city":{"name": "Cascavel", "state":"PR", "location":{"lat": -24.957301, "lng": -53.459005}},
"city":{"name": "Corbélia", "state":"PR", "location":{"lat": -24.797122, "lng": -53.300576}},
"city":{"name": "Ibema", "state":"PR", "location":{"lat": -25.111335, "lng": -53.014616}},
"city":{"name": "Campo Bonito", "state":"PR", "location":{"lat": -25.029445, "lng": -52.993933}},
"city":{"name": "Braganey", "state":"PR", "location":{"lat": -24.817340, "lng": -53.121787}},
"city":{"name": "Anahy", "state":"PR", "location":{"lat": -24.644865, "lng": -53.133235}},
"city":{"name": "Iguatu", "state":"PR", "location":{"lat": -24.715277, "lng": -53.082724}},
"city":{"name": "Jesuítas", "state":"PR", "location":{"lat": -24.383918, "lng": -53.384920}},
"city":{"name": "Iracema do Oeste", "state":"PR", "location":{"lat": -24.426155, "lng": -53.352790}},
"city":{"name": "Cafelândia", "state":"PR", "location":{"lat": -24.618862, "lng": -53.320705}},
"city":{"name": "Nova Aurora", "state":"PR", "location":{"lat": -24.528859, "lng": -53.257449}},
"city":{"name": "Formosa do Oeste", "state":"PR", "location":{"lat": -24.295097, "lng": -53.311378}},
"city":{"name": "Ubiratã", "state":"PR", "location":{"lat": -24.539292, "lng": -52.986485}},
"city":{"name": "Quarto Centenário", "state":"PR", "location":{"lat": -24.277499, "lng": -53.075884}},
"city":{"name": "Goioerê", "state":"PR", "location":{"lat": -24.183481, "lng": -53.024842}},
"city":{"name": "Guaraniaçu", "state":"PR", "location":{"lat": -25.096822, "lng": -52.875531}},
"city":{"name": "Altamira do Paraná", "state":"PR", "location":{"lat": -24.798293, "lng": -52.712829}},
"city":{"name": "Diamante do Sul", "state":"PR", "location":{"lat": -25.035007, "lng": -52.676782}},
"city":{"name": "Nova Cantu", "state":"PR", "location":{"lat": -24.672324, "lng": -52.566078}},
"city":{"name": "Laranjal", "state":"PR", "location":{"lat": -24.886153, "lng": -52.470041}},
"city":{"name": "Juranda", "state":"PR", "location":{"lat": -24.420866, "lng": -52.841344}},
"city":{"name": "Campina da Lagoa", "state":"PR", "location":{"lat": -24.589323, "lng": -52.797590}},
"city":{"name": "Rancho Alegre D'Oeste", "state":"PR", "location":{"lat": -24.303548, "lng": -52.949883}},
"city":{"name": "Boa Esperança", "state":"PR", "location":{"lat": -24.246738, "lng": -52.787560}},
"city":{"name": "Janiópolis", "state":"PR", "location":{"lat": -24.140124, "lng": -52.778360}},
"city":{"name": "Mamborê", "state":"PR", "location":{"lat": -24.316951, "lng": -52.527119}},
"city":{"name": "Alto Piquiri", "state":"PR", "location":{"lat": -24.022427, "lng": -53.440045}},
"city":{"name": "Perobal", "state":"PR", "location":{"lat": -23.894861, "lng": -53.409838}},
"city":{"name": "Umuarama", "state":"PR", "location":{"lat": -23.765634, "lng": -53.320110}},
"city":{"name": "Mariluz", "state":"PR", "location":{"lat": -24.008888, "lng": -53.143242}},
"city":{"name": "Moreira Sales", "state":"PR", "location":{"lat": -24.052657, "lng": -53.005640}},
"city":{"name": "Maria Helena", "state":"PR", "location":{"lat": -23.615754, "lng": -53.205333}},
"city":{"name": "Cruzeiro do Oeste", "state":"PR", "location":{"lat": -23.779943, "lng": -53.077442}},
"city":{"name": "Ivaté", "state":"PR", "location":{"lat": -23.407206, "lng": -53.368705}},
"city":{"name": "Douradina", "state":"PR", "location":{"lat": -23.380720, "lng": -53.291794}},
"city":{"name": "Nova Olímpia", "state":"PR", "location":{"lat": -23.470252, "lng": -53.089799}},
"city":{"name": "Araruna", "state":"PR", "location":{"lat": -23.931500, "lng": -52.502101}},
"city":{"name": "Cianorte", "state":"PR", "location":{"lat": -23.659859, "lng": -52.605444}},
"city":{"name": "Terra Boa", "state":"PR", "location":{"lat": -23.768329, "lng": -52.447002}},
"city":{"name": "Jussara", "state":"PR", "location":{"lat": -23.621931, "lng": -52.469310}},
"city":{"name": "Coxim", "state":"MS", "location":{"lat": -18.501299, "lng": -54.750991}},
"city":{"name": "Pedro Gomes", "state":"MS", "location":{"lat": -18.099622, "lng": -54.550663}},
"city":{"name": "Sonora", "state":"MS", "location":{"lat": -17.569775, "lng": -54.755112}},
"city":{"name": "Itaipulândia", "state":"PR", "location":{"lat": -25.136623, "lng": -54.300102}},
"city":{"name": "Santa Helena", "state":"PR", "location":{"lat": -24.858494, "lng": -54.336010}},
"city":{"name": "Missal", "state":"PR", "location":{"lat": -25.091855, "lng": -54.247664}},
"city":{"name": "Ramilândia", "state":"PR", "location":{"lat": -25.119472, "lng": -54.023015}},
"city":{"name": "Diamante D'Oeste", "state":"PR", "location":{"lat": -24.941858, "lng": -54.105157}},
"city":{"name": "Entre Rios do Oeste", "state":"PR", "location":{"lat": -24.704210, "lng": -54.238507}},
"city":{"name": "São José das Palmeiras", "state":"PR", "location":{"lat": -24.836883, "lng": -54.057225}},
"city":{"name": "Pato Bragado", "state":"PR", "location":{"lat": -24.624625, "lng": -54.228115}},
"city":{"name": "Mercedes", "state":"PR", "location":{"lat": -24.453791, "lng": -54.161826}},
"city":{"name": "Marechal Cândido Rondon", "state":"PR", "location":{"lat": -24.557891, "lng": -54.056115}},
"city":{"name": "Terra Roxa", "state":"PR", "location":{"lat": -24.157455, "lng": -54.098816}},
"city":{"name": "Vera Cruz do Oeste", "state":"PR", "location":{"lat": -25.057688, "lng": -53.877096}},
"city":{"name": "Céu Azul", "state":"PR", "location":{"lat": -25.148876, "lng": -53.841473}},
"city":{"name": "São Pedro do Iguaçu", "state":"PR", "location":{"lat": -24.937311, "lng": -53.852141}},
"city":{"name": "Ouro Verde do Oeste", "state":"PR", "location":{"lat": -24.793258, "lng": -53.904303}},
"city":{"name": "Toledo", "state":"PR", "location":{"lat": -24.724641, "lng": -53.741177}},
"city":{"name": "Santa Tereza do Oeste", "state":"PR", "location":{"lat": -25.054316, "lng": -53.627417}},
"city":{"name": "Quatro Pontes", "state":"PR", "location":{"lat": -24.575152, "lng": -53.975885}},
"city":{"name": "Nova Santa Rosa", "state":"PR", "location":{"lat": -24.469293, "lng": -53.955249}},
"city":{"name": "Maripá", "state":"PR", "location":{"lat": -24.419978, "lng": -53.828641}},
"city":{"name": "Palotina", "state":"PR", "location":{"lat": -24.286784, "lng": -53.840422}},
"city":{"name": "Tupãssi", "state":"PR", "location":{"lat": -24.587887, "lng": -53.510510}},
"city":{"name": "Assis Chateaubriand", "state":"PR", "location":{"lat": -24.416826, "lng": -53.521327}},
"city":{"name": "Brasilândia do Sul", "state":"PR", "location":{"lat": -24.197762, "lng": -53.527527}},
"city":{"name": "Japorã", "state":"MS", "location":{"lat": -23.890325, "lng": -54.405946}},
"city":{"name": "Andrelândia", "state":"MG", "location":{"lat": -21.741088, "lng": -44.311690}},
"city":{"name": "Arantina", "state":"MG", "location":{"lat": -21.910171, "lng": -44.255519}},
"city":{"name": "Bom Jardim de Minas", "state":"MG", "location":{"lat": -21.947875, "lng": -44.188498}},
"city":{"name": "Santana do Garambéu", "state":"MG", "location":{"lat": -21.598344, "lng": -44.105044}},
"city":{"name": "Madre de Deus de Minas", "state":"MG", "location":{"lat": -21.483017, "lng": -44.328730}},
"city":{"name": "Conceição da Barra de Minas", "state":"MG", "location":{"lat": -21.131558, "lng": -44.472901}},
"city":{"name": "Ritápolis", "state":"MG", "location":{"lat": -21.027564, "lng": -44.320435}},
"city":{"name": "Piedade do Rio Grande", "state":"MG", "location":{"lat": -21.469021, "lng": -44.193834}},
"city":{"name": "São João del Rei", "state":"MG", "location":{"lat": -21.131054, "lng": -44.252646}},
"city":{"name": "Santa Cruz de Minas", "state":"MG", "location":{"lat": -21.124148, "lng": -44.220251}},
"city":{"name": "Tiradentes", "state":"MG", "location":{"lat": -21.110232, "lng": -44.174421}},
"city":{"name": "Coronel Xavier Chaves", "state":"MG", "location":{"lat": -21.027724, "lng": -44.220600}},
"city":{"name": "Prados", "state":"MG", "location":{"lat": -21.059748, "lng": -44.077798}},
"city":{"name": "Itaguaí", "state":"RJ", "location":{"lat": -22.863566, "lng": -43.779821}},
"city":{"name": "Piraí", "state":"RJ", "location":{"lat": -22.621497, "lng": -43.908071}},
"city":{"name": "Seropédica", "state":"RJ", "location":{"lat": -22.752584, "lng": -43.715482}},
"city":{"name": "Japeri", "state":"RJ", "location":{"lat": -22.643502, "lng": -43.660228}},
"city":{"name": "Jaupaci", "state":"GO", "location":{"lat": -16.177289, "lng": -50.950766}},
"city":{"name": "Santa Fé de Goiás", "state":"GO", "location":{"lat": -15.766426, "lng": -51.103706}},
"city":{"name": "Jussara", "state":"GO", "location":{"lat": -15.865877, "lng": -50.866818}},
"city":{"name": "Ivolândia", "state":"GO", "location":{"lat": -16.599526, "lng": -50.792076}},
"city":{"name": "Moiporá", "state":"GO", "location":{"lat": -16.543374, "lng": -50.739040}},
"city":{"name": "Cachoeira de Goiás", "state":"GO", "location":{"lat": -16.663516, "lng": -50.646041}},
"city":{"name": "Aurilândia", "state":"GO", "location":{"lat": -16.677260, "lng": -50.464123}},
"city":{"name": "São Luís de Montes Belos", "state":"GO", "location":{"lat": -16.521064, "lng": -50.372628}},
"city":{"name": "Córrego do Ouro", "state":"GO", "location":{"lat": -16.291774, "lng": -50.550301}},
"city":{"name": "Almeirim", "state":"PA", "location":{"lat": -1.520968, "lng": -52.581573}},
"city":{"name": "Laranjal do Jari", "state":"AP", "location":{"lat": -0.804911, "lng": -52.452962}},
"city":{"name": "Nova Veneza", "state":"SC", "location":{"lat": -28.633772, "lng": -49.505541}},
"city":{"name": "Siderópolis", "state":"SC", "location":{"lat": -28.595501, "lng": -49.431423}},
"city":{"name": "Itaiópolis", "state":"SC", "location":{"lat": -26.338975, "lng": -49.909200}},
"city":{"name": "Rio do Oeste", "state":"SC", "location":{"lat": -27.195155, "lng": -49.798896}},
"city":{"name": "Laurentino", "state":"SC", "location":{"lat": -27.217295, "lng": -49.733119}},
"city":{"name": "Rio do Sul", "state":"SC", "location":{"lat": -27.215596, "lng": -49.643016}},
"city":{"name": "Presidente Getúlio", "state":"SC", "location":{"lat": -27.047430, "lng": -49.624609}},
"city":{"name": "Wenceslau Braz", "state":"PR", "location":{"lat": -23.874217, "lng": -49.803201}},
"city":{"name": "Fartura", "state":"SP", "location":{"lat": -23.391643, "lng": -49.512403}},
"city":{"name": "Taguaí", "state":"SP", "location":{"lat": -23.445242, "lng": -49.402377}},
"city":{"name": "Tejupá", "state":"SP", "location":{"lat": -23.342458, "lng": -49.372244}},
"city":{"name": "Sarutaiá", "state":"SP", "location":{"lat": -23.272103, "lng": -49.476259}},
"city":{"name": "Piraju", "state":"SP", "location":{"lat": -23.198066, "lng": -49.380335}},
"city":{"name": "Tunas do Paraná", "state":"PR", "location":{"lat": -24.973084, "lng": -49.087889}},
"city":{"name": "Cerro Azul", "state":"PR", "location":{"lat": -24.822128, "lng": -49.253626}},
"city":{"name": "Adrianópolis", "state":"PR", "location":{"lat": -24.660607, "lng": -48.992164}},
"city":{"name": "Ribeira", "state":"SP", "location":{"lat": -24.651710, "lng": -49.004409}},
"city":{"name": "Itapirapuã Paulista", "state":"SP", "location":{"lat": -24.572033, "lng": -49.166151}},
"city":{"name": "Barra do Chapéu", "state":"SP", "location":{"lat": -24.472203, "lng": -49.023784}},
"city":{"name": "Bom Sucesso de Itararé", "state":"SP", "location":{"lat": -24.315511, "lng": -49.145104}},
"city":{"name": "Itaóca", "state":"SP", "location":{"lat": -24.639252, "lng": -48.841285}},
"city":{"name": "Apiaí", "state":"SP", "location":{"lat": -24.510819, "lng": -48.844271}},
"city":{"name": "Nova Campina", "state":"SP", "location":{"lat": -24.122367, "lng": -48.902179}},
"city":{"name": "Ribeirão Branco", "state":"SP", "location":{"lat": -24.220580, "lng": -48.763545}},
"city":{"name": "Barra do Turvo", "state":"SP", "location":{"lat": -24.759035, "lng": -48.501260}},
"city":{"name": "Estrela do Sul", "state":"MG", "location":{"lat": -18.739940, "lng": -47.695643}},
"city":{"name": "Monte Carmelo", "state":"MG", "location":{"lat": -18.730245, "lng": -47.491228}},
"city":{"name": "Douradoquara", "state":"MG", "location":{"lat": -18.433784, "lng": -47.599310}},
"city":{"name": "Abadia dos Dourados", "state":"MG", "location":{"lat": -18.483101, "lng": -47.391623}},
"city":{"name": "Coromandel", "state":"MG", "location":{"lat": -18.473364, "lng": -47.193348}},
"city":{"name": "Davinópolis", "state":"GO", "location":{"lat": -18.150084, "lng": -47.556795}},
"city":{"name": "Ipameri", "state":"GO", "location":{"lat": -17.721544, "lng": -48.158118}},
"city":{"name": "Urutaí", "state":"GO", "location":{"lat": -17.465097, "lng": -48.201481}},
"city":{"name": "Campo Alegre de Goiás", "state":"GO", "location":{"lat": -17.636346, "lng": -47.776815}},
"city":{"name": "Guimarânia", "state":"MG", "location":{"lat": -18.842460, "lng": -46.790145}},
"city":{"name": "Lagamar", "state":"MG", "location":{"lat": -18.175918, "lng": -46.806343}},
"city":{"name": "Vazante", "state":"MG", "location":{"lat": -17.982732, "lng": -46.908826}},
"city":{"name": "Lagoa Formosa", "state":"MG", "location":{"lat": -18.771489, "lng": -46.401236}},
"city":{"name": "Patos de Minas", "state":"MG", "location":{"lat": -18.569938, "lng": -46.501268}},
"city":{"name": "Presidente Olegário", "state":"MG", "location":{"lat": -18.409610, "lng": -46.416502}},
"city":{"name": "Lagoa Grande", "state":"MG", "location":{"lat": -17.832265, "lng": -46.516519}},
"city":{"name": "Guarda-Mor", "state":"MG", "location":{"lat": -17.767307, "lng": -47.099756}},
"city":{"name": "Paracatu", "state":"MG", "location":{"lat": -17.225166, "lng": -46.871064}},
"city":{"name": "São Sebastião da Vargem Alegre", "state":"MG", "location":{"lat": -21.073656, "lng": -42.634672}},
"city":{"name": "Rosário da Limeira", "state":"MG", "location":{"lat": -20.981227, "lng": -42.511196}},
"city":{"name": "Cantagalo", "state":"RJ", "location":{"lat": -21.979736, "lng": -42.366425}},
"city":{"name": "Macuco", "state":"RJ", "location":{"lat": -21.981345, "lng": -42.253288}},
"city":{"name": "Estrela Dalva", "state":"MG", "location":{"lat": -21.741231, "lng": -42.457430}},
"city":{"name": "Pirapetinga", "state":"MG", "location":{"lat": -21.655434, "lng": -42.343390}},
"city":{"name": "São Sebastião do Alto", "state":"RJ", "location":{"lat": -21.957792, "lng": -42.132816}},
"city":{"name": "Santa Maria Madalena", "state":"RJ", "location":{"lat": -21.954660, "lng": -42.009845}},
"city":{"name": "Itaocara", "state":"RJ", "location":{"lat": -21.674801, "lng": -42.075793}},
"city":{"name": "Santo Antônio de Pádua", "state":"RJ", "location":{"lat": -21.541038, "lng": -42.183157}},
"city":{"name": "Aperibé", "state":"RJ", "location":{"lat": -21.625231, "lng": -42.101661}},
"city":{"name": "Palma", "state":"MG", "location":{"lat": -21.374776, "lng": -42.312285}},
"city":{"name": "Barão de Monte Alto", "state":"MG", "location":{"lat": -21.244403, "lng": -42.237185}},
"city":{"name": "Muriaé", "state":"MG", "location":{"lat": -21.129965, "lng": -42.369304}},
"city":{"name": "Patrocínio do Muriaé", "state":"MG", "location":{"lat": -21.154387, "lng": -42.212491}},
"city":{"name": "Miracema", "state":"RJ", "location":{"lat": -21.414848, "lng": -42.193832}},
"city":{"name": "São José de Ubá", "state":"RJ", "location":{"lat": -21.366066, "lng": -41.951058}},
"city":{"name": "Laje do Muriaé", "state":"RJ", "location":{"lat": -21.209073, "lng": -42.127117}},
"city":{"name": "Santana do Riacho", "state":"MG", "location":{"lat": -19.166236, "lng": -43.721950}},
"city":{"name": "Bom Jesus do Amparo", "state":"MG", "location":{"lat": -19.705430, "lng": -43.478225}},
"city":{"name": "São Gonçalo do Rio Abaixo", "state":"MG", "location":{"lat": -19.822100, "lng": -43.365987}},
"city":{"name": "Itambé do Mato Dentro", "state":"MG", "location":{"lat": -19.415761, "lng": -43.318250}},
"city":{"name": "João Monlevade", "state":"MG", "location":{"lat": -19.812646, "lng": -43.173463}},
"city":{"name": "Bela Vista de Minas", "state":"MG", "location":{"lat": -19.830210, "lng": -43.092164}},
"city":{"name": "Nova Era", "state":"MG", "location":{"lat": -19.757738, "lng": -43.033267}},
"city":{"name": "Itabira", "state":"MG", "location":{"lat": -19.623936, "lng": -43.231230}},
"city":{"name": "Santa Maria de Itabira", "state":"MG", "location":{"lat": -19.443100, "lng": -43.106446}},
"city":{"name": "Morro do Pilar", "state":"MG", "location":{"lat": -19.223625, "lng": -43.379465}},
"city":{"name": "Santo Antônio do Rio Abaixo", "state":"MG", "location":{"lat": -19.237366, "lng": -43.260414}},
"city":{"name": "Conceição do Mato Dentro", "state":"MG", "location":{"lat": -19.034410, "lng": -43.422082}},
"city":{"name": "Dom Joaquim", "state":"MG", "location":{"lat": -18.961036, "lng": -43.254382}},
"city":{"name": "Passabém", "state":"MG", "location":{"lat": -19.350917, "lng": -43.138332}},
"city":{"name": "São Sebastião do Rio Preto", "state":"MG", "location":{"lat": -19.295906, "lng": -43.175670}},
"city":{"name": "Ferros", "state":"MG", "location":{"lat": -19.234309, "lng": -43.019232}},
"city":{"name": "Carmésia", "state":"MG", "location":{"lat": -19.087718, "lng": -43.138248}},
"city":{"name": "Nova Veneza", "state":"GO", "location":{"lat": -16.369518, "lng": -49.316789}},
"city":{"name": "Itaberaí", "state":"GO", "location":{"lat": -16.020551, "lng": -49.806034}},
"city":{"name": "Itauçu", "state":"GO", "location":{"lat": -16.202899, "lng": -49.610929}},
"city":{"name": "Taquaral de Goiás", "state":"GO", "location":{"lat": -16.052057, "lng": -49.603859}},
"city":{"name": "Itaguari", "state":"GO", "location":{"lat": -15.918044, "lng": -49.607084}},
"city":{"name": "Itaguaru", "state":"GO", "location":{"lat": -15.756470, "lng": -49.635375}},